Cod3HD,Insegna,TipologiaPdV,MQVEND,Parking,Indirizzo,Lat,Long,Comune,Provincia,Potenziale,microcode
2715,MD,DIS,390,TRUE,VIA DEL PENNINO SNC,40.943633,14.3705792,ACERRA,NA,0.004,6.30E+11
3978,PENNY,DIS,840,TRUE,SDA COMUNALE GUERRA,40.9332199,14.3602778,ACERRA,NA,0.008,6.30E+11
5780,QUARI',LIS,106,FALSE,CORSO ITALIA 84/86,40.9408078,14.3685461,ACERRA,NA,0.004,6.30E+11
6008,SIGMA,LIS,250,TRUE,VIA DE GASPERI 3,40.9494491,14.3653823,ACERRA,NA,0.006,6.30E+11
6650,MARGHERITA,LIS,110,FALSE,VIA LEONARDO DA VINCI 11,40.9459082,14.370191,ACERRA,NA,0.003,6.30E+11
6651,CONAD CITY,LIS,230,TRUE,VIA MARSALA 20,40.9373829,14.3682186,ACERRA,NA,0.005,6.30E+11
6987,DECO' MARKET,LIS,300,TRUE,VIA ARMANDO DIAZ 61,40.9378971,14.3760267,ACERRA,NA,0.01,6.30E+11
7028,CONAD SUPERSTORE,SUP,1400,TRUE,CORSO ITALIA 126,40.9393545,14.367852,ACERRA,NA,0.036,6.30E+11
17079,CONAD CITY,LIS,360,TRUE,VIA MADONNELLE 2,40.947972,14.3786174,ACERRA,NA,0.009,6.30E+11
22005,COMAS SUPERMERCATI,LIS,100,FALSE,VIA DUOMO 68,40.9424161,14.3726735,ACERRA,NA,0.001,6.30E+11
22131,QUARI',LIS,120,FALSE,VIA SAN FRANCESCO D'ASSISI 24,40.9459884,14.3771651,ACERRA,NA,0.003,6.30E+11
22803,N. D.,LIS,150,FALSE,CORSO RESISTENZA 116,40.9460273,14.367751,ACERRA,NA,0.001,6.30E+11
25532,N. D.,LIS,300,FALSE,VIA STEFANO DELLE CHIAIE,40.9996574,14.4107379,ACERRA,NA,0.004,NA
50999,OTTIMO,LIS,120,FALSE,VIA VOLTURNO 139,40.9458814,14.3607665,ACERRA,NA,0.001,6.30E+11
50381,N. D.,SUP,800,TRUE,VIA MADONNELLA 22,40.9497297,14.380377,ACERRA,NA,0.001,6.30E+11
28800,OPPORTUNITY SHOP,SSD,140,FALSE,VIA MADONNELLA 8L/K,40.9492159,14.3797855,ACERRA,NA,0.015,6.30E+11
1925,PELLICANO,SUP,800,TRUE,VIA CINQUE VIE 45/47,40.9290844,14.3144428,AFRAGOLA,NA,0.007,6.30E+11
50895,DESPAR,LIS,180,FALSE,VIA TORINO 22,40.9166493,14.3102131,AFRAGOLA,NA,0.004,6.30E+11
8606,QUARI',LIS,180,TRUE,CORSO GARIBALDI 55,40.9176995,14.3045513,AFRAGOLA,NA,0.006,6.30E+11
10356,IPERCOOP,IPR,4500,TRUE,VIA MARZIASEPE 1,40.9336963,14.3562808,AFRAGOLA,NA,0.349,NA
14200,DECO' SUPERMERCATI,LIS,200,FALSE,VIA RUSSO FRANCESCO 85,40.9196824,14.3030846,AFRAGOLA,NA,0.003,6.30E+11
17356,MAXI SIDIS,LIS,360,FALSE,VIA M IMBRIANI 22,40.9173288,14.3065349,AFRAGOLA,NA,0.003,6.30E+11
18474,N. D.,LIS,180,FALSE,VIA PELLICO 38,40.9167853,14.3135806,AFRAGOLA,NA,0.001,6.30E+11
18475,N. D.,LIS,200,FALSE,CORSO VITTORIO EMANUELE III 10,40.9228416,14.3073823,AFRAGOLA,NA,0.001,6.30E+11
20219,EUROSPIN,DIS,800,TRUE,VIA SANTA MARIA LA NOVA 1,40.9339016,14.3580295,AFRAGOLA,NA,0.012,NA
20672,LIDL,DIS,1000,TRUE,VIA SANTA MARIA LA NOVA,40.9330984,14.352701,AFRAGOLA,NA,0.052,NA
22706,CUOR DI CRAI,LIS,220,FALSE,VIA ALCIDE DE GASPERI 121,40.928211,14.308798,AFRAGOLA,NA,0.001,6.30E+11
23467,PELLICANO,LIS,300,FALSE,VIA PIETRO NENNI 65,40.9194945,14.3192461,AFRAGOLA,NA,0.002,6.30E+11
24724,N. D.,LIS,150,FALSE,VIA F.CAMPAGNA 30,40.9180583,14.3169401,AFRAGOLA,NA,0.001,6.30E+11
25083,CONAD,SUP,540,FALSE,VIA GUIDO D'ORSO 3,40.9223615,14.3042254,AFRAGOLA,NA,0.005,6.30E+11
25176,N. D.,LIS,180,FALSE,VIA MILANO 87,40.914013,14.309484,AFRAGOLA,NA,0.001,6.30E+11
25933,CRAI,LIS,350,FALSE,IV TRAVERSA SAN MARCO 5,40.9141067,14.3310675,AFRAGOLA,NA,0.005,6.30E+11
50996,OTTIMO,LIS,120,FALSE,VIA DE GASPERI 99,40.9279997,14.3081699,AFRAGOLA,NA,0.001,6.30E+11
50438,SIDISMINI,LIS,100,FALSE,VIA SAN MARCO 143,40.9181724,14.3251935,AFRAGOLA,NA,0.002,6.30E+11
51113,DESPAR,LIS,380,TRUE,VIA SICILIA 62,40.9312572,14.310556,AFRAGOLA,NA,0.004,6.30E+11
28801,N. D.,SSD,300,FALSE,CORSO MERIDIONALE 5/7/9,40.9283913,14.3070298,AFRAGOLA,NA,0.017,6.30E+11
28895,N. D.,SSD,200,FALSE,CORSO ALCIDE DE GASPERI 94,40.9283042,14.3088083,AFRAGOLA,NA,0.002,6.30E+11
19534,DESPAR EXPRESS,LIS,110,FALSE,VIA A.COPPOLA 132,40.6283908,14.5645302,AGEROLA,NA,0.001,6.30E+11
24227,MARKETPIU',LIS,120,FALSE,VIA DELLA VITTORIA 24,40.6424079,14.5439645,AGEROLA,NA,0.001,6.30E+11
25389,N. D.,LIS,100,FALSE,PIAZZA VITTORIO EMANUELE III 20,40.6382202,14.5436351,AGEROLA,NA,0.001,6.30E+11
25443,MARKETPIU',LIS,130,FALSE,VIALE VITTORIA   24,40.6424079,14.5439645,AGEROLA,NA,0.002,6.30E+11
25645,IL PUNTO SIGMA,LIS,100,FALSE,VIA GIUSEPPE ORLANDI 253,40.553667,14.217996,ANACAPRI,NA,0.002,6.30E+11
50336,DECO' MARKET,LIS,380,TRUE,VIA ORLANDI 299,40.552833,14.217926,ANACAPRI,NA,0.012,6.30E+11
8866,CONAD,SUP,700,TRUE,VIA ALFREDO PECCHIA 160,40.9172378,14.2671666,ARZANO,NA,0.048,6.30E+11
17080,CONAD,SUP,410,FALSE,VIA NAPOLI 217,40.9075952,14.2651731,ARZANO,NA,0.018,6.30E+11
18476,N. D.,LIS,185,FALSE,VIA BENEDETTO CROCE 24/26,40.9089343,14.2737969,ARZANO,NA,0.001,6.30E+11
18477,MD,DIS,480,TRUE,CORSO SALVATORE D'AMATO 19,40.91061,14.278368,ARZANO,NA,0.005,6.30E+11
20100,EUROSPIN,DIS,1500,TRUE,VIA ALFREDO PECCHIA 176,40.920994,14.2649861,ARZANO,NA,0.027,6.30E+11
20359,SOLE365,SUP,1110,TRUE,VIA NAPOLI 270,40.9050029,14.2659221,ARZANO,NA,0.04,6.30E+11
20529,DECO' SUPERMERCATI,LIS,300,TRUE,VIA NAPOLI 235/243,40.9067742,14.265026,ARZANO,NA,0.006,6.30E+11
20568,MARKETPIU',LIS,150,FALSE,VIA MELITO 4/6,40.9105504,14.268484,ARZANO,NA,0.002,6.30E+11
21548,DECO' SUPERMERCATI,LIS,320,FALSE,VIA VOLPICELLI 33,40.9165061,14.2617988,ARZANO,NA,0.013,6.30E+11
50282,QUARI',LIS,100,FALSE,VIA ALFREDO PECCHIA 55/63,40.9137912,14.2690033,ARZANO,NA,0.002,6.30E+11
23286,DECO' SUPERMERCATI,LIS,260,TRUE,VIA LUIGI ROCCO 49/55,40.9124971,14.2727492,ARZANO,NA,0.007,6.30E+11
23689,MD,DIS,1100,TRUE,VIA CASANDRINO 60,40.903972,14.2631428,ARZANO,NA,0.01,6.30E+11
50317,MAXIPIU',LIS,200,TRUE,VIA ATELLANA 7/9,40.9049729,14.2618827,ARZANO,NA,0.005,6.30E+11
51301,SIGMA,SUP,400,FALSE,VIA SANREMO 24,40.9079361,14.2641431,ARZANO,NA,0.01,6.30E+11
26462,N. D.,SSD,120,FALSE,VIA ALFREDO PECCHIA 133/135,40.915615,14.26819,ARZANO,NA,0.001,6.30E+11
8814,DESPAR,LIS,300,FALSE,VIALE OLIMPICO 61,40.7978221,14.0649958,BACOLI,NA,0.009,6.30E+11
14429,EUROSPAR,SUP,650,TRUE,VIA CUMA 161,40.8410205,14.0551411,BACOLI,NA,0.031,6.30E+11
14430,DECO' SUPERMERCATI,SUP,530,TRUE,VIA MERCATO DI SABATO 318,40.8084756,14.0514845,BACOLI,NA,0.021,6.30E+11
16728,MAXI SIDIS,SUP,600,TRUE,VIA CORNELIA DEI GRACCHI 8,40.8257189,14.0646953,BACOLI,NA,0.024,6.30E+11
18478,DESPAR,LIS,180,TRUE,VIA ROMA 148/150,40.801785,14.079888,BACOLI,NA,0.005,6.30E+11
20282,CUOR DI CRAI,LIS,140,TRUE,VIA LUNGO LAGO 58,40.7969193,14.0744981,BACOLI,NA,0.003,6.30E+11
21385,CUOR DI CRAI,LIS,250,FALSE,VIA OTTAVIANO AUGUSTO 69,40.8180792,14.061431,BACOLI,NA,0.007,6.30E+11
23155,DESPAR,LIS,250,TRUE,VIA MISENO 16,40.792809,14.078377,BACOLI,NA,0.008,6.30E+11
25438,N. D.,LIS,120,TRUE,VIA VANVITELLI  78,40.8194607,14.0626123,BACOLI,NA,0.001,6.30E+11
28754,PILATO,SSD,220,TRUE,VIA RISORGIMENTO 176,40.7991513,14.077119,BACOLI,NA,0.023,6.30E+11
29053,PROSHOP,SSD,120,FALSE,VIA BACOLI,40.7845018,14.0871737,BACOLI,NA,0.004,6.30E+11
29287,PROSHOP,SSD,200,TRUE,VIA GIULIO CESARE 405,40.8108891,14.0531233,BACOLI,NA,0.021,6.30E+11
5712,SEBON,SUP,900,FALSE,VIA VINCENZO DI MEGLIO 119,40.716178,13.935611,BARANO D'ISCHIA,NA,0.089,6.30E+11
13963,DECO' MAXISTORE,SUP,700,TRUE,VIA DUCA DEGLI ABRUZZI 69,40.723054,13.9282563,BARANO D'ISCHIA,NA,0.06,6.30E+11
15636,DECO' SUPERMERCATI,LIS,300,TRUE,VIA CORRADO BUONO 13,40.7089215,13.9173397,BARANO D'ISCHIA,NA,0.014,6.30E+11
16237,CARREFOUR MARKET,SUP,600,FALSE,VIA CROCE TESTACCIO 21,40.7061197,13.9194291,BARANO D'ISCHIA,NA,0.013,6.30E+11
50313,QUI DISCOUNT,DIS,150,FALSE,VIA VINCENZO DI MEGLIO  169,40.7167762,13.9382963,BARANO D'ISCHIA,NA,0.002,6.30E+11
51137,MD,DIS,400,TRUE,VIA LUIGI SCOTTI 14,40.716625,13.9250858,BARANO D'ISCHIA,NA,0.005,6.30E+11
27413,DECO' IGIENE E BELLEZZA,SSD,300,FALSE,VIA DUCA DEGLI ABRUZZI 69,40.723054,13.9282563,BARANO D'ISCHIA,NA,0.049,6.30E+11
3054,MD,DIS,385,TRUE,VIA SETTETERMINI 1,40.77122,14.48,BOSCOREALE,NA,0.002,6.30E+11
5251,GRAN RISPARMIO,LIS,200,FALSE,VIA SOTTOTENENTE ERNESTO CIRILLO 154,40.7748209,14.4766267,BOSCOREALE,NA,0.002,6.30E+11
8184,SIGMA,LIS,300,FALSE,VIA GIOVANNI DELLA ROCCA 205,40.771533,14.4765352,BOSCOREALE,NA,0.001,6.30E+11
8621,IL PUNTO SIGMA,LIS,170,FALSE,VIA CANGIANI 234,40.78341,14.54399,BOSCOREALE,NA,0.003,6.30E+11
17357,SUPERMERCATI HELLO,LIS,100,FALSE,VIA GIOVANNI DELLA ROCCA 102,40.7710257,14.4742651,BOSCOREALE,NA,0.001,6.30E+11
21386,SIGMA,LIS,150,FALSE,VIA LUIGI OLIVA 71,40.77415,14.48195,BOSCOREALE,NA,0.002,6.30E+11
21701,SUPERMERCATI HELLO,LIS,200,FALSE,VIA MARCHESA 360,40.785432,14.5255759,BOSCOREALE,NA,0.002,6.30E+11
22915,IL PUNTO SIGMA,LIS,110,FALSE,VIA ORTOBOTANICO 4 ,40.7642308,14.4721829,BOSCOREALE,NA,0.003,6.30E+11
23297,GRAN RISPARMIO MINI,LIS,240,TRUE,VIA MARRA 46/48,40.781355,14.545819,BOSCOREALE,NA,0.002,6.30E+11
23311,OK SIGMA,LIS,220,FALSE,VIA TRIVIO MARKESA 148,40.7797628,14.5156143,BOSCOREALE,NA,0.002,6.30E+11
24475,MAXIPIU',LIS,120,TRUE,VIA GIUSEPPE GARIBALDI  92/96,40.7733116,14.4759719,BOSCOREALE,NA,0.003,6.30E+11
24725,N. D.,LIS,200,FALSE,VIA SETTETERMINI  77,40.7653173,14.4763588,BOSCOREALE,NA,0.002,6.30E+11
25687,SISA,LIS,200,FALSE,VIA GIOVANNI DELLA ROCCA 104,40.7710637,14.474387,BOSCOREALE,NA,0.004,6.30E+11
28676,PROSHOP,SSD,120,FALSE,VIA PASSANTI FLOCCO 38,40.7781519,14.500736,BOSCOREALE,NA,0.002,6.30E+11
3055,SOLE365,SUP,550,TRUE,VIA NAZIONALE 76,40.7636466,14.4558511,BOSCOTRECASE,NA,0.002,6.30E+11
14431,MARGHERITA,LIS,100,FALSE,VIA ANNUNZIATELLA 43,40.7752862,14.4633794,BOSCOTRECASE,NA,0.001,6.30E+11
21702,COMAS SUPERMERCATI,LIS,100,FALSE,CORSO UMBERTO I 97,40.77616,14.467882,BOSCOTRECASE,NA,0.001,6.30E+11
23434,DECO' SUPERMERCATI,LIS,250,FALSE,VIA CAPITAN GIUSEPPE REA 2,40.774468,14.4611697,BOSCOTRECASE,NA,0.006,6.30E+11
10428,CONAD,SUP,750,TRUE,VIA CAMILLO CUCCIA 55,40.9201628,14.421656,BRUSCIANO,NA,0.011,6.30E+11
50258,SPENDIBENE,LIS,120,TRUE,VIA GUGLIELMO MARCONI 64,40.9218927,14.4214402,BRUSCIANO,NA,0.004,6.30E+11
1926,MARKETPIU',LIS,120,FALSE,VIA LIBERTINI 6,40.9536169,14.3013329,CAIVANO,NA,0.002,6.30E+11
3335,EUROSPIN,DIS,525,TRUE,VIA TURATI 72,40.9645478,14.3090578,CAIVANO,NA,0.011,6.30E+11
7802,PREMIUM SU,LIS,300,FALSE,VIA VITTORIO ALFIERI 68,40.9519837,14.3075392,CAIVANO,NA,0.003,6.30E+11
8414,CONAD CITY,LIS,180,TRUE,VIA ITALO SVEVO,40.956764,14.3046087,CAIVANO,NA,0.004,6.30E+11
50236,SEBON,SUP,600,TRUE,VIA SONNAMBULA 28,40.956764,14.3046087,CAIVANO,NA,0.019,6.30E+11
14145,PREMIUM SU,SUP,600,TRUE,VIA RISORGIMENTO 68,40.9593764,14.3106355,CAIVANO,NA,0.002,6.30E+11
17358,MIO MERCATO,LIS,100,FALSE,CORSO UMBERTO I 364,40.9575394,14.3057469,CAIVANO,NA,0.001,6.30E+11
18479,DECO' SUPERMERCATI,LIS,248,TRUE,VIA NECROPOLI 24,40.9614399,14.3019153,CAIVANO,NA,0.008,6.30E+11
19028,PELLICANO,LIS,120,FALSE,VIA LEOPARDI 33,40.979569,14.306434,CAIVANO,NA,0.002,6.30E+11
20675,MIO MERCATO,LIS,300,TRUE,VIA MARZANO 43,40.9770308,14.306763,CAIVANO,NA,0.004,6.30E+11
21602,PELLICANO,LIS,300,FALSE,VIA SANTA BARBARA 115,40.9556778,14.2979896,CAIVANO,NA,0.001,6.30E+11
22120,QUARI',LIS,140,FALSE,VIA ARMANDO DIAZ 166,40.9550593,14.2958693,CAIVANO,NA,0.004,6.30E+11
22916,MIO MERCATO,LIS,120,FALSE,VIA DE CESARE 27/31,40.9492478,14.3005147,CAIVANO,NA,0.002,6.30E+11
23623,DECO' MARKET,LIS,240,TRUE,CORSO UMBERTO 29/37,40.9498921,14.302483,CAIVANO,NA,0.005,6.30E+11
24372,MD,DIS,600,TRUE,VIA ATELLANA 298,40.9596,14.29496,CAIVANO,NA,0.006,6.30E+11
28896,UNIVERSO DEL PULITO,SSD,100,FALSE,VIA S.ARCANGELO,40.9669015,14.3156533,CAIVANO,NA,0.005,6.30E+11
2273,CONAD,SUP,900,TRUE,VIA DELLA REPUBBLICA 122,40.902948,14.1949976,CALVIZZANO,NA,0.006,6.30E+11
7277,N. D.,LIS,200,TRUE,VIA ALDO MORO 39,40.9045818,14.1847142,CALVIZZANO,NA,0.003,NA
24899,N. D.,LIS,100,FALSE,VIA S.PERTINI,40.9077232,14.1805117,CALVIZZANO,NA,0.001,6.30E+11
3957,SP SUPERMERCATI PICCOLO,SUP,700,TRUE,SDA PROV NOLA CICCIANO 41,40.9556716,14.5311202,CAMPOSANO,NA,0.113,6.30E+11
25411,N. D.,LIS,140,FALSE,VIA G. MARCONI  59,40.9556267,14.533016,CAMPOSANO,NA,0.001,6.30E+11
25752,LIDL,DIS,1500,TRUE,VIA PROVINCIALE NOLA-CICCIANO,40.9455529,14.5310986,CAMPOSANO,NA,0.06,6.30E+11
5719,SUPERO',SUP,400,FALSE,VIA PROVINCIALE MARINA GRANDE 73,40.551143,14.2372306,CAPRI,NA,0.018,6.30E+11
15637,DECO' MARKET,LIS,250,FALSE,VIA PROVINCIALE MARINA GRANDE 35/37,40.5508232,14.2359875,CAPRI,NA,0.002,6.30E+11
16238,DECO' MARKET,LIS,300,TRUE,VIA MATERMANIA 1/3,40.550961,14.248466,CAPRI,NA,0.009,6.30E+11
17359,DODECA,SUP,600,TRUE,VIA PROVINCIALE MARINA GRANDE 2,40.5507039,14.2424876,CAPRI,NA,0.048,6.30E+11
18480,N. D.,LIS,150,TRUE,VIA DEL PARCO 24,40.8755458,14.5772193,CARBONARA DI NOLA,NA,0.001,6.30E+11
10024,MAXI SIDIS,LIS,363,TRUE,VIA TIZIANO 19,40.9389186,14.2880863,CARDITO,NA,0.006,6.30E+11
20244,MD,DIS,850,TRUE,"SS SANNITICA KM 9,16",40.9313042,14.2994903,CARDITO,NA,0.009,6.30E+11
20361,CRAI,IPR,2500,TRUE,VIALE 1 MAGGIO,40.9408789,14.3025123,CARDITO,NA,0.069,6.30E+11
23451,DIMEGLIO,SUP,850,FALSE,VIA DI CIRILLO 22,40.92865,14.29644,CARDITO,NA,0.017,6.30E+11
49933,N. D.,SSD,100,FALSE,VIA MANZONI 20,40.9364134,14.2899362,CARDITO,NA,0.012,6.30E+11
50133,N. D.,SSD,100,FALSE,VIA PETRARCA 7,40.9365872,14.2855209,CARDITO,NA,0.003,6.30E+11
2686,MD,DIS,815,FALSE,VIA NAPOLI 41,40.9077656,14.3397797,CASALNUOVO DI NAPOLI,NA,0.006,6.30E+11
3548,SEBON,SUP,660,FALSE,VIA ARCORA 100,40.9053125,14.3463248,CASALNUOVO DI NAPOLI,NA,0.014,6.30E+11
3560,N. D.,LIS,180,FALSE,VIA NAZIONALE DELLE PUGLIE 300,40.902173,14.353968,CASALNUOVO DI NAPOLI,NA,0.001,6.30E+11
4360,SEBON,LIS,150,FALSE,VIA ANTONIO DE CURTIS 21,40.9106845,14.3407114,CASALNUOVO DI NAPOLI,NA,0.002,6.30E+11
5221,CONAD CITY,LIS,350,FALSE,VIA NAZIONALE DELLE PUGLIE 40,40.9013498,14.347188,CASALNUOVO DI NAPOLI,NA,0.006,6.30E+11
5733,QUARI',LIS,130,FALSE,CORSO UMBERTO I 208,40.9108919,14.342262,CASALNUOVO DI NAPOLI,NA,0.004,6.30E+11
8928,CONAD CITY,LIS,300,FALSE,VIALE DEI LIGUSTRI 1,40.9153856,14.3498702,CASALNUOVO DI NAPOLI,NA,0.005,6.30E+11
13528,DECO' MARKET,LIS,150,FALSE,CORSO UMBERTO I 228,40.9111909,14.3425784,CASALNUOVO DI NAPOLI,NA,0.003,6.30E+11
14432,CONAD CITY,LIS,110,FALSE,VIA PIGNA 104/106,40.9123014,14.3555583,CASALNUOVO DI NAPOLI,NA,0.004,6.30E+11
15597,MARGHERITA,LIS,160,FALSE,VIALE DEI TIGLI 8/12,40.9121642,14.3577003,CASALNUOVO DI NAPOLI,NA,0.001,6.30E+11
16239,SAI,LIS,250,FALSE,CORSO UMBERTO 178,40.910642,14.341448,CASALNUOVO DI NAPOLI,NA,0.006,6.30E+11
18481,SP SUPERMERCATI PICCOLO,LIS,320,TRUE,VIA DEI TIGLI 19,40.9117752,14.3621889,CASALNUOVO DI NAPOLI,NA,0.015,6.30E+11
19378,N. D.,LIS,300,FALSE,VIA IAZZETTA 28/36,40.9112733,14.3646288,CASALNUOVO DI NAPOLI,NA,0.003,6.30E+11
20056,SEBON,SUP,400,FALSE,VIA STRETTOLA 5,40.9114584,14.3419768,CASALNUOVO DI NAPOLI,NA,0.007,6.30E+11
23666,DECO' SUPERMERCATI,SUP,400,TRUE,VIA BENEVENTO 117,40.9185013,14.3538695,CASALNUOVO DI NAPOLI,NA,0.021,6.30E+11
24727,N. D.,LIS,100,FALSE,VIA BENEVENTO  18,40.9161736,14.3515573,CASALNUOVO DI NAPOLI,NA,0.001,6.30E+11
25281,CONAD CITY,LIS,300,TRUE,VIA PLINIO 14,40.9020082,14.3571431,CASALNUOVO DI NAPOLI,NA,0.007,6.30E+11
49461,CUOR DI CRAI,LIS,100,FALSE,VIA ROMA 168,40.913103,14.350878,CASALNUOVO DI NAPOLI,NA,0.001,6.30E+11
49524,SP SUPERMERCATI PICCOLO,SUP,500,TRUE,VIA DON PIETRO ORDITURA,40.9082563,14.335131,CASALNUOVO DI NAPOLI,NA,0.04,6.30E+11
28843,TUTTO PER TUTTI,SSD,120,FALSE,VIA NAZIONALE DELLE PUGLIE 111,40.902057,14.350452,CASALNUOVO DI NAPOLI,NA,0.007,6.30E+11
28898,N. D.,SSD,250,TRUE,VIA VITTORIO EMANUELE 339,40.914028,14.36147,CASALNUOVO DI NAPOLI,NA,0.002,6.30E+11
50741,PUNTOPI,SSD,150,FALSE,VIA PIGNA 17,40.910945,14.352298,CASALNUOVO DI NAPOLI,NA,0.013,6.30E+11
24728,MAXI SIDIS,LIS,200,TRUE,VIA SEMINARIO - P.CO S.ANGELO 3,40.9330944,14.5525487,CASAMARCIANO,NA,0.005,6.30E+11
4188,DOK,SUP,410,TRUE,CORSO GARIBALDI 121,40.743046,13.9078627,CASAMICCIOLA TERME,NA,0.011,6.30E+11
8698,MD,DIS,370,TRUE,VIA S. GIRARDI 47,40.7500123,13.916982,CASAMICCIOLA TERME,NA,0.001,6.30E+11
10137,DECO' SUPERMERCATI,SUP,450,TRUE,VIA CUMANA 19,40.74772,13.914597,CASAMICCIOLA TERME,NA,0.083,6.30E+11
14433,MARKETPIU',LIS,110,FALSE,VIA ARNO 56,40.9359995,14.2406182,CASANDRINO,NA,0.001,6.30E+11
15055,MARKETPIU',LIS,110,FALSE,VIA FIRENZE 25,40.9336357,14.248398,CASANDRINO,NA,0.001,6.30E+11
17365,SISA,LIS,285,FALSE,VIA PAOLO BORSELLINO 90,40.9312971,14.2482696,CASANDRINO,NA,0.003,6.30E+11
24572,CONAD SUPERSTORE,SUP,1500,TRUE,VIA PAOLO BORSELLINO 150C-D,40.925264,14.2487896,CASANDRINO,NA,0.062,6.30E+11
49553,CRAI,LIS,150,FALSE,PIAZZA F.LLI KENNEDY 12,40.9352203,14.2459303,CASANDRINO,NA,0.002,6.30E+11
51155,LIDL,DIS,600,TRUE,VIA PAOLO BORSELLINO SNC,40.9265103,14.2475242,CASANDRINO,NA,0.03,6.30E+11
3282,ETE',SUP,420,FALSE,PIAZZA GASPARE DI NOCERA 12,40.900115,14.2743277,CASAVATORE,NA,0.009,6.30E+11
4432,OTTIMO,LIS,160,FALSE,VIA PALIZZI 14,40.8976546,14.2737168,CASAVATORE,NA,0.001,6.30E+11
8929,SIGMA,LIS,220,FALSE,VIA LUIGI GALVANI 8/10,40.8915513,14.2779295,CASAVATORE,NA,0.004,6.30E+11
16491,DECO' SUPERMERCATI,SUP,850,FALSE,VIA TAVERNA ROSSA 157,40.897889,14.2841128,CASAVATORE,NA,0.006,6.30E+11
19536,MARKETPIU',LIS,100,FALSE,VIA PALIZZI 38/40,40.8977444,14.2742932,CASAVATORE,NA,0.001,6.30E+11
20537,DECO' MARKET,LIS,250,FALSE,VIA SEGRE' 6/12,40.8915223,14.2772016,CASAVATORE,NA,0.003,6.30E+11
22260,EUROSPIN,DIS,1051,FALSE,VIALE GUGLIELMO MARCONI 124,40.8974814,14.2775623,CASAVATORE,NA,0.006,6.30E+11
23163,PENNY,DIS,810,TRUE,VIALE GUGLIELMO MARCONI 191,40.8965449,14.2778606,CASAVATORE,NA,0.013,6.30E+11
23206,ETE',SUP,500,FALSE,VIA CAVOUR 2/4,40.8965322,14.2774418,CASAVATORE,NA,0.018,6.30E+11
50296,MARKETPIU',LIS,100,FALSE,VIA LOCATELLI  78,40.9032168,14.2802879,CASAVATORE,NA,0.001,6.30E+11
1927,OTTIMO,SUP,400,FALSE,VIA TORQUATO TASSO 66,40.9009299,14.2854842,CASORIA,NA,0.008,6.30E+11
2871,MD,DIS,710,FALSE,VIA CIRCUMVALLAZIONE ESTERNA 4,40.8954271,14.2930351,CASORIA,NA,0.006,6.30E+11
3279,MD,DIS,530,FALSE,VIA PUCCINI 1,40.8990846,14.3011012,CASORIA,NA,0.001,6.30E+11
4159,CONAD SUPERSTORE,SUP,1350,TRUE,SDA STATALE SANNITICA 87 KM 8,40.9259229,14.2980159,CASORIA,NA,0.062,6.30E+11
5722,OTTIMO,LIS,180,FALSE,VIA ARPINO 67/69,40.8768686,14.3069052,CASORIA,NA,0.003,6.30E+11
5779,MIO MERCATO,LIS,155,FALSE,VIA GIOLITTI 29/35,40.9003343,14.2851782,CASORIA,NA,0.002,6.30E+11
5935,SISA,LIS,200,TRUE,VIA NAZIONALE DELLE PUGLIE 200B,40.8862428,14.3207936,CASORIA,NA,0.002,6.30E+11
6423,SISA,SUP,1100,TRUE,VIA PRINCIPE DI PIEMONTE 66C,40.9056598,14.2849076,CASORIA,NA,0.019,6.30E+11
6986,DECO' MARKET,LIS,250,FALSE,VIA DON LUIGI STURZO 22/26,40.9017281,14.2825208,CASORIA,NA,0.007,6.30E+11
7027,CONAD,SUP,450,FALSE,VIA COLASANTO 24,40.8785998,14.3090578,CASORIA,NA,0.003,6.30E+11
7201,EUROSPIN,DIS,725,TRUE,VIA MAZZINI 3D,40.9079616,14.2956531,CASORIA,NA,0.009,6.30E+11
7278,DECO' SUPERMERCATI,LIS,350,FALSE,VIA RAFFAELE GALLUCCIO 38/40,40.9007878,14.2902199,CASORIA,NA,0.005,6.30E+11
8608,QUARI',LIS,135,FALSE,VIA ARPINO 39,40.8760172,14.306573,CASORIA,NA,0.003,6.30E+11
14244,CRAI,SUP,1300,TRUE,SDA STATALE SANNITICA 87 KM 9,40.9259229,14.2980159,CASORIA,NA,0.041,6.30E+11
14434,SEBON,SUP,600,FALSE,VIA GIORDANO BRUNO 9,40.9022768,14.284769,CASORIA,NA,0.009,6.30E+11
14435,EUROSPAR,SUP,1000,TRUE,VIA GIOVANNI AMATO 45,40.8991842,14.2997913,CASORIA,NA,0.041,6.30E+11
16492,DECO' SUPERMERCATI,SUP,400,FALSE,VIA ARPINO 119,40.87802,14.30729,CASORIA,NA,0.006,6.30E+11
16493,EUROSPIN,DIS,600,TRUE,VIA INDIPENDENZA 27,40.9192602,14.2890421,CASORIA,NA,0.009,6.30E+11
18088,N. D.,LIS,310,FALSE,VIA NAZIONALE DELLE PUGLIE 180,40.8864722,14.3204642,CASORIA,NA,0.003,6.30E+11
18482,MARKETPIU',LIS,150,FALSE,VIA NAZARIO SAURO 47,40.9140922,14.3015017,CASORIA,NA,0.001,6.30E+11
19029,N. D.,LIS,175,FALSE,VIA VINCENZO CUOCO 15,40.9128598,14.3043445,CASORIA,NA,0.001,6.30E+11
19379,N. D.,LIS,150,FALSE,VIA PADRE LUDOVICO 35,40.90652,14.2892613,CASORIA,NA,0.001,6.30E+11
21301,CRAI,SUP,675,FALSE,VIA NAZIONALE DELLE PUGLIE 102,40.8781662,14.312653,CASORIA,NA,0.003,6.30E+11
21982,N. D.,LIS,100,FALSE,VIA BRODOLINI 31,40.8978496,14.2907044,CASORIA,NA,0.001,6.30E+11
23076,LIDL,DIS,1000,TRUE,VIA PADULA,40.9007176,14.299125,CASORIA,NA,0.052,6.30E+11
23416,N. D.,LIS,150,FALSE,VIA CIRCUMVALLAZIONE ESTERNA SNC,40.8963459,14.2973986,CASORIA,NA,0.007,6.30E+11
23749,SIDISMINI,LIS,100,FALSE,VIA NAZARIO SAURO 20,40.9117945,14.2984076,CASORIA,NA,0.002,6.30E+11
24361,DECO' MAXISTORE,SUP,1090,TRUE,VIA NAZIONALE DELLE PUGLIE 179,40.8882982,14.3211485,CASORIA,NA,0.032,6.30E+11
50997,OTTIMO,LIS,120,FALSE,VIA NAZARIO SAURO 96,40.9143863,14.3021167,CASORIA,NA,0.001,6.30E+11
49717,SEBON,LIS,300,FALSE,VIA PRINCIPE DI PIEMONTE 34,40.9016912,14.2859879,CASORIA,NA,0.006,6.30E+11
50473,CONAD SUPERSTORE,SUP,1600,TRUE,LOCALITA' SAN SALVATORE,40.8981196,14.3139946,CASORIA,NA,0.117,6.30E+11
26464,N. D.,SSD,110,FALSE,VIA NAZARIO SAURO 22,40.9118913,14.2986665,CASORIA,NA,0.003,6.30E+11
26465,PROSHOP,SSD,120,FALSE,VIA PIAVE 21A-B,40.9190346,14.3002019,CASORIA,NA,0.009,6.30E+11
27135,PROSHOP,SSD,250,TRUE,SDA STATALE SANNITICA 87 KM 9,40.9259229,14.2980159,CASORIA,NA,0.012,6.30E+11
49930,N. D.,SSD,300,TRUE,VIA NAZIONALE DELLE PUGLIE 253,40.8965936,14.3285537,CASORIA,NA,0.002,6.30E+11
28899,UNIVERSO DEL PULITO,SSD,250,TRUE,VIA BENEDETTO CROCE 50,40.8817661,14.3125949,CASORIA,NA,0.018,6.30E+11
28900,UNIVERSO DEL PULITO,SSD,120,FALSE,VIA DON LUIGI STURZO,40.901391,14.282802,CASORIA,NA,0.008,6.30E+11
50805,IPER MAGAZZINI MAURY'S,SSD,2500,TRUE,STRADA COMUNALE SAN SALVATORE,40.8985345,14.3127467,CASORIA,NA,0.106,6.30E+11
1936,SOLE365,SUP,400,TRUE,VIALE EUROPA 160,40.7014192,14.4890949,CASTELLAMMARE DI STABIA,NA,0.024,6.30E+11
4732,DECO' SUPERMERCATI,LIS,248,TRUE,VIA NOCERA 41,40.697507,14.484692,CASTELLAMMARE DI STABIA,NA,0.01,6.30E+11
5290,GRAN RISPARMIO,LIS,300,FALSE,VIA TRAVERSA TAVERNOLA 56,40.7100445,14.4932786,CASTELLAMMARE DI STABIA,NA,0.004,6.30E+11
5474,MD,DIS,350,TRUE,VIA EUROPA 63,40.6978569,14.4882216,CASTELLAMMARE DI STABIA,NA,0.003,6.30E+11
8477,OK SIGMA,LIS,210,FALSE,VIA NAPOLI 324,40.7196878,14.4798678,CASTELLAMMARE DI STABIA,NA,0.004,6.30E+11
14483,SOLE365,SUP,410,FALSE,VIA DENZA 20,40.6983626,14.4846104,CASTELLAMMARE DI STABIA,NA,0.014,6.30E+11
15348,A&O,LIS,145,FALSE,VIA ALESSANDRO VOLTA 6/14,40.7043869,14.493324,CASTELLAMMARE DI STABIA,NA,0.001,6.30E+11
15349,DECO' SUPERMERCATI,LIS,175,FALSE,VIA GUGLIELMO MARCONI 75,40.6988904,14.4873205,CASTELLAMMARE DI STABIA,NA,0.001,6.30E+11
50938,CONAD CITY,LIS,225,FALSE,VIA NAPOLI 298,40.72,14.4797,CASTELLAMMARE DI STABIA,NA,0.006,6.30E+11
15599,A&O,LIS,260,FALSE,VIA POZZILLO 40,40.72409,14.4891703,CASTELLAMMARE DI STABIA,NA,0.008,6.30E+11
15815,DECO' SUPERMERCATI,LIS,250,TRUE,VIA GIUSEPPE COSENZA 167,40.7023247,14.4920271,CASTELLAMMARE DI STABIA,NA,0.007,6.30E+11
16005,A&O,LIS,148,FALSE,VIA CICERONE 1/8,40.7041636,14.4937357,CASTELLAMMARE DI STABIA,NA,0.004,6.30E+11
16006,DECO' SUPERMERCATI,SUP,524,TRUE,VIA SALVATOR ALLENDE 12/14,40.7050714,14.4874108,CASTELLAMMARE DI STABIA,NA,0.01,6.30E+11
16494,MARGHERITA,LIS,200,FALSE,VIA RENATO RAJOLA 5,40.7027932,14.4850341,CASTELLAMMARE DI STABIA,NA,0.004,6.30E+11
17501,SOLE365,SUP,565,FALSE,VIA PIETRO CARRESE 20/A,40.702056,14.4863153,CASTELLAMMARE DI STABIA,NA,0.027,6.30E+11
50950,COOP,SUP,450,FALSE,CORSO GIUSEPPE GARIBALDI 118,40.7028,14.482538,CASTELLAMMARE DI STABIA,NA,0.004,6.30E+11
24729,SUPERMERCATI HELLO,LIS,300,FALSE,VIA GESU' 47,40.6940003,14.4790864,CASTELLAMMARE DI STABIA,NA,0.003,6.30E+11
25769,EUROSPIN,DIS,1000,TRUE,VIA NAPOLI,40.7104329,14.4846414,CASTELLAMMARE DI STABIA,NA,0.016,6.30E+11
49566,DESPAR,SUP,750,FALSE,VIA G. COSENZA 83/85,40.699743,14.488667,CASTELLAMMARE DI STABIA,NA,0.016,6.30E+11
51156,LIDL,DIS,980,TRUE,VIA NAPOLI 139,40.7115166,14.4831975,CASTELLAMMARE DI STABIA,NA,0.063,6.30E+11
14448,SP SUPERMERCATI PICCOLO,LIS,340,FALSE,VIA SELVA 14,40.9149327,14.4086497,CASTELLO DI CISTERNA,NA,0.032,6.30E+11
20258,EUROSPAR,SUP,1200,TRUE,VIA SELVA,40.9095357,14.4098076,CASTELLO DI CISTERNA,NA,0.131,6.30E+11
20804,SP SUPERMERCATI PICCOLO,SUP,1500,FALSE,VIALE IMPERO 7,40.9167796,14.402314,CASTELLO DI CISTERNA,NA,0.169,6.31E+11
24229,PELLICANO,SUP,500,TRUE,VIA SANDRO PERTINI ,40.9201935,14.4090873,CASTELLO DI CISTERNA,NA,0.016,NA
8584,MD,DIS,600,TRUE,VIA SILVIO PELLICO 27,40.8592727,14.3594208,CERCOLA,NA,0.007,6.30E+11
13964,CONAD,SUP,400,FALSE,VIALE DEI PLATANI 15,40.8620753,14.3559017,CERCOLA,NA,0.011,6.30E+11
16240,SIGMA,LIS,360,FALSE,VIA EUROPA 25/A,40.8498032,14.3577294,CERCOLA,NA,0.002,6.30E+11
18089,N. D.,LIS,100,FALSE,VIA ALDO MORO 22,40.8705823,14.3563409,CERCOLA,NA,0.001,6.30E+11
22168,CRAI,LIS,200,FALSE,VIALE BELLINI 9,40.8715946,14.3545832,CERCOLA,NA,0.002,6.30E+11
22720,SISA,LIS,300,TRUE,VIA EUROPA 18,40.8555993,14.3504754,CERCOLA,NA,0.005,6.30E+11
27767,PROSHOP,SSD,170,FALSE,CORSO DOMENICO RICCARDI 11/13,40.8575689,14.3537996,CERCOLA,NA,0.003,6.30E+11
7979,CONAD CITY,LIS,250,FALSE,VIA GRAMSCI 8,40.9608122,14.5343261,CICCIANO,NA,0.006,6.30E+11
10343,CONAD,SUP,450,TRUE,VIA GIACOMO MATTEOTTI 100,40.9663793,14.5374311,CICCIANO,NA,0.018,6.30E+11
10993,DECO' SUPERMERCATI,SUP,520,TRUE,VIA TAVERNANOVA 79,40.9648796,14.5211548,CICCIANO,NA,0.012,6.30E+11
11157,SISA,LIS,310,TRUE,VIA BIFULCO 9,40.9646654,14.5390119,CICCIANO,NA,0.001,6.30E+11
18483,N. D.,LIS,220,FALSE,VIA COMM NICOLA RUSSO 6,40.9592354,14.5376375,CICCIANO,NA,0.003,6.30E+11
22754,CONAD CITY,LIS,300,TRUE,VIA NOLA 5,40.9614014,14.5377131,CICCIANO,NA,0.007,6.30E+11
25113,MAXIPIU',LIS,100,FALSE,VIA CASERTA 229,40.9682575,14.5286169,CICCIANO,NA,0.002,6.30E+11
50728,UNIVERSO DEL PULITO,SSD,100,FALSE,VIA GIACOMO MATTEOTTI 85,40.9657411,14.5379439,CICCIANO,NA,0.008,6.30E+11
1928,CONAD CITY,LIS,200,FALSE,VIA DELLE PUGLIE 72,40.93972,14.5323559,CIMITILE,NA,0.003,6.30E+11
6652,CONAD,SUP,570,TRUE,VIA NAZIONALE DELLE PUGLIE,40.940821,14.531595,CIMITILE,NA,0.014,6.30E+11
24730,N. D.,LIS,180,FALSE,CORSO UMBERTO I 122,40.9398363,14.5237844,CIMITILE,NA,0.001,6.30E+11
26889,ACQUA & SAPONE,SSD,240,FALSE,VIA NAZIONALE DELLE PUGLIE 48/56,40.9396432,14.5314362,CIMITILE,NA,0.032,6.30E+11
15892,SIGMA,LIS,360,FALSE,VIA CAPPUCCINI 38,40.9517011,14.294351,CRISPANO,NA,0.003,6.30E+11
50995,OTTIMO,LIS,120,TRUE,VIA ARMANDO DIAZ 10,40.9490349,14.2983566,CRISPANO,NA,0.001,6.30E+11
5317,CONAD,LIS,250,TRUE,VIA SACERDOTE BENEDETTO COZZOLINO 10,40.8310069,14.3577795,ERCOLANO,NA,0.007,6.31E+11
5477,MD,DIS,400,TRUE,VIA CAMPANIA 15,40.8069709,14.3533582,ERCOLANO,NA,0.002,6.31E+11
13899,EUROESSE,SUP,650,TRUE,PIAZZA TRIESTE 18,40.805985,14.352594,ERCOLANO,NA,0.014,6.31E+11
19537,MD,DIS,700,TRUE,VIA SACERDOTE BENEDETTO COZZOLINO 106,40.8157393,14.366236,ERCOLANO,NA,0.007,6.31E+11
19538,N. D.,LIS,110,FALSE,VIA PANORAMICA 314,40.8132273,14.3561317,ERCOLANO,NA,0.001,6.31E+11
19852,DECO' MAXISTORE,SUP,1300,TRUE,VIA SACERDOTE BENEDETTO COZZOLINO 86,40.825764,14.3575832,ERCOLANO,NA,0.055,6.31E+11
20038,EUROSPIN,DIS,800,FALSE,VIA IV NOVEMBRE 23,40.8063273,14.3500326,ERCOLANO,NA,0.013,6.31E+11
21267,CONAD,SUP,400,TRUE,VIA MADONNELLE 75,40.8229883,14.356591,ERCOLANO,NA,0.007,6.31E+11
21703,N. D.,LIS,180,FALSE,VIA CROCE MONTE 17B,40.810351,14.3494753,ERCOLANO,NA,0.002,6.31E+11
21814,N. D.,LIS,200,FALSE,VIA PANORAMICA 160,40.8097218,14.356287,ERCOLANO,NA,0.001,6.31E+11
22918,SIGMA,SUP,400,TRUE,VIA CAPRILE 9-4 B,40.8061201,14.3564581,ERCOLANO,NA,0.008,6.31E+11
24731,N. D.,LIS,100,FALSE,CORSO RESINA 276,40.8044773,14.350746,ERCOLANO,NA,0.001,6.31E+11
24732,N. D.,LIS,130,FALSE,VIA IV NOVEMBRE 81,40.8080838,14.3531593,ERCOLANO,NA,0.001,6.31E+11
49537,N. D.,LIS,270,FALSE,VIA SACERDOTE BENEDETTO COZZOLINO 2,40.8355913,14.3604939,ERCOLANO,NA,0.004,6.31E+11
28901,N. D.,SSD,180,TRUE,VIA ROSSI 62,40.8008193,14.3570738,ERCOLANO,NA,0.004,6.31E+11
1947,SEBON,LIS,150,FALSE,VIA MATTEO VERDE 35/37,40.7368698,13.8608868,FORIO,NA,0.009,6.30E+11
3027,DOK,SUP,450,FALSE,VIA CASA FIORENTINO 9,40.7102699,13.8729756,FORIO,NA,0.013,6.30E+11
14201,DECO' SUPERMERCATI,SUP,400,TRUE,VIA MONTERONE 31,40.7359156,13.8675977,FORIO,NA,0.019,6.30E+11
14676,DOK,LIS,210,FALSE,VIA GIOVANNI CASTELLACCIO 30,40.7362508,13.864912,FORIO,NA,0.005,6.30E+11
15712,DECO' SUPERMERCATI,LIS,300,FALSE,CORSO FRANCESCO REGINE 34,40.7364499,13.85782,FORIO,NA,0.005,6.30E+11
18093,CARREFOUR EXPRESS,LIS,113,FALSE,VIA D. ABUNDO 8/10,40.7087428,13.8750358,FORIO,NA,0.001,6.30E+11
19206,DECO' MAXISTORE,SUP,684,TRUE,VIA MARIO D'AMBRA 30,40.7124519,13.8737813,FORIO,NA,0.099,6.30E+11
19902,CRAI,LIS,210,TRUE,VIA BAIOLA 113,40.7383311,13.8695021,FORIO,NA,0.006,6.30E+11
20157,DOK,SUP,650,FALSE,VIA PROVINCIALE LACCO 104,40.7466585,13.8916779,FORIO,NA,0.01,6.30E+11
22618,MD,DIS,500,TRUE,VIA MARIO D'AMBRA 8,40.7131445,13.8728734,FORIO,NA,0.005,6.30E+11
51114,DESPAR,LIS,210,TRUE,VIA BAIOLA 125,40.7384241,13.8703614,FORIO,NA,0.003,6.30E+11
27872,DECO' IGIENE E BELLEZZA,SSD,100,FALSE,VIA MONTERONE 8,40.7362036,13.8673015,FORIO,NA,0.024,6.30E+11
50814,OPPORTUNITY SHOP,SSD,200,FALSE,VIA PROVINCIALE PANZA 152,40.7310551,13.8645339,FORIO,NA,0.019,6.30E+11
8545,PREMIUM SU,LIS,250,TRUE,VIA DON MINZONI 89,40.9385551,14.2777064,FRATTAMAGGIORE,NA,0.009,6.30E+11
11808,PREMIUM SU,LIS,300,FALSE,VIA XXXI MAGGIO 80,40.9428878,14.2804148,FRATTAMAGGIORE,NA,0.004,6.30E+11
12521,PREMIUM SU,LIS,170,FALSE,VIA ROMA 27,40.9402767,14.2718557,FRATTAMAGGIORE,NA,0.003,6.30E+11
12963,CONAD,SUP,800,FALSE,VIA MICHELANGELO LUPOLI 50,40.9424121,14.2700331,FRATTAMAGGIORE,NA,0.017,6.30E+11
13641,QUARI',LIS,125,FALSE,VIA MASSIMO STANZIONE 190,40.9465935,14.2745137,FRATTAMAGGIORE,NA,0.005,6.30E+11
18484,N. D.,LIS,100,FALSE,PIAZZA UMBERTO 1-2,40.9415743,14.2712396,FRATTAMAGGIORE,NA,0.001,6.30E+11
19783,MD,DIS,480,TRUE,VIA BIANCARDI 41,40.9381375,14.2695289,FRATTAMAGGIORE,NA,0.004,6.30E+11
22804,PREMIUM SU,LIS,150,FALSE,VIA PADRE MARIO VERGARA 64/66,40.9344494,14.2751793,FRATTAMAGGIORE,NA,0.002,6.30E+11
23809,SOLE365,SUP,562,TRUE,VIA PADRE MARIO VERGARA 89,40.9354351,14.2770291,FRATTAMAGGIORE,NA,0.047,6.30E+11
25538,N. D.,LIS,250,FALSE,VIA P. IANNIELLO 168,40.949602,14.273975,FRATTAMAGGIORE,NA,0.003,6.30E+11
50382,N. D.,LIS,150,FALSE,VIA MASSIMO STANZIONE 29,40.94318,14.2771795,FRATTAMAGGIORE,NA,0.001,6.30E+11
3984,DECO' SUPERMERCATI,LIS,320,TRUE,VIA GIOVANNI XXIII 145,40.949049,14.2714858,FRATTAMINORE,NA,0.01,6.30E+11
4445,MD,DIS,840,TRUE,VIA DON STURZO 28,40.9511661,14.26889,FRATTAMINORE,NA,0.005,6.30E+11
20030,DESPAR,LIS,250,TRUE,VIA CRISPANO 36,40.953981,14.277188,FRATTAMINORE,NA,0.004,6.30E+11
50283,MARKETPIU',LIS,120,FALSE,VIA SAN NICOLA 28,40.9576627,14.2698705,FRATTAMINORE,NA,0.001,6.30E+11
23750,BRIO',LIS,200,FALSE,VIA ROMA 196,40.960963,14.274273,FRATTAMINORE,NA,0.001,6.30E+11
25432,N. D.,LIS,100,TRUE,VIA SANT ARPINO N 14 16,40.957575,14.265667,FRATTAMINORE,NA,0.001,6.30E+11
2305,SEBON,SUP,900,TRUE,VIA OASI DEL SACRO CUORE 121,40.9394134,14.2078768,GIUGLIANO IN CAMPANIA,NA,0.035,6.30E+11
2656,MD,DIS,310,FALSE,VIA MARCHESELLA 114,40.9237052,14.1853851,GIUGLIANO IN CAMPANIA,NA,0.004,6.30E+11
3590,CONAD,SUP,410,FALSE,VIA LAGO PATRIA 144,40.92209,14.03328,GIUGLIANO IN CAMPANIA,NA,0.022,6.30E+11
3892,CONAD CITY,LIS,300,TRUE,VIA RIPUARIA 48,40.9098361,14.0673439,GIUGLIANO IN CAMPANIA,NA,0.009,6.30E+11
4160,CONAD,SUP,470,TRUE,CORSO ANTONIO CAMPANO 519,40.928327,14.184575,GIUGLIANO IN CAMPANIA,NA,0.008,6.30E+11
6021,MD,DIS,200,TRUE,VIA RIPUARIA 158,40.9054477,14.0621805,GIUGLIANO IN CAMPANIA,NA,0.002,6.30E+11
7161,AUCHAN,IPR,11978,TRUE,VIA SAN FRANCESCO A PATRIA,40.9255593,14.1635056,GIUGLIANO IN CAMPANIA,NA,0.83,6.30E+11
7279,DECO' MARKET,LIS,180,FALSE,VIA SANTA RITA DA CASCIA 54/58,40.9348009,14.2068626,GIUGLIANO IN CAMPANIA,NA,0.004,6.30E+11
8086,MD,DIS,250,TRUE,VIA DOMITIANA KM 45.700,40.8957608,14.0443693,GIUGLIANO IN CAMPANIA,NA,0.003,6.30E+11
10144,DECO' SUPERMERCATI,SUP,530,TRUE,VIA RIPUARIA 98 BIS,40.9064297,14.0667029,GIUGLIANO IN CAMPANIA,NA,0.031,6.30E+11
14202,MAXIPIU',LIS,300,FALSE,VIA MARCHESELLA 168/172,40.92386388,14.17991839,GIUGLIANO IN CAMPANIA,NA,0.002,6.30E+11
14436,DECO' SUPERMERCATI,LIS,320,TRUE,VIA PIGNA 32,40.9331347,14.1749763,GIUGLIANO IN CAMPANIA,NA,0.008,6.30E+11
14541,MD,DIS,530,TRUE,VICO POZZO 3/7,40.92821,14.19874,GIUGLIANO IN CAMPANIA,NA,0.005,6.30E+11
14542,CONAD,LIS,300,TRUE,VIA RIPUARIA 112,40.9057256,14.0627512,GIUGLIANO IN CAMPANIA,NA,0.009,6.30E+11
15600,CONAD,SUP,410,TRUE,VIA FRANCESCO FREZZA 4,40.9317804,14.1994032,GIUGLIANO IN CAMPANIA,NA,0.004,6.30E+11
15816,ENNESI,LIS,250,FALSE,VIA VITTORIO VENETO 18,40.9265228,14.2047742,GIUGLIANO IN CAMPANIA,NA,0.004,6.30E+11
15817,SIGMA SUPERSTORE,SUP,800,TRUE,VIA SAN FRANCESCO D'ASSISI 24,40.9325465,14.2039893,GIUGLIANO IN CAMPANIA,NA,0.016,6.30E+11
16241,DECO' MARKET,LIS,250,TRUE,VIA GIUSEPPE DI VITTORIO 38,40.9241899,14.198095,GIUGLIANO IN CAMPANIA,NA,0.008,6.30E+11
16495,DECO' MARKET,LIS,255,TRUE,CORSO ANTONIO CAMPANO 569,40.9271753,14.1804016,GIUGLIANO IN CAMPANIA,NA,0.004,6.30E+11
16729,CONAD CITY,LIS,140,FALSE,VIA COLONNE 182,40.9286966,14.2095728,GIUGLIANO IN CAMPANIA,NA,0.003,6.30E+11
17084,CUOR DI CRAI,LIS,100,TRUE,CORSO ANTONIO CAMPANO 531,40.9246104,14.1723628,GIUGLIANO IN CAMPANIA,NA,0.005,6.30E+11
17577,MARGHERITA,LIS,130,FALSE,VIA SAN FRANCESCO D'ASSISI 35,40.9330471,14.203736,GIUGLIANO IN CAMPANIA,NA,0.001,6.30E+11
18090,CRAI,LIS,150,TRUE,VIA SAN NULLO 76/78,40.891578,14.085952,GIUGLIANO IN CAMPANIA,NA,0.001,6.30E+11
18091,ENNE MARKET,LIS,160,FALSE,VIA LIMITONE 66,40.9246738,14.193327,GIUGLIANO IN CAMPANIA,NA,0.003,6.30E+11
19030,N. D.,LIS,120,TRUE,VIA SAN NULLO 66,40.8919701,14.0934626,GIUGLIANO IN CAMPANIA,NA,0.001,6.30E+11
19031,DECO' SUPERMERCATI,SUP,420,FALSE,VIA STAFFETTA 127,40.9173151,14.0380707,GIUGLIANO IN CAMPANIA,NA,0.015,6.30E+11
19380,MARKETPIU',LIS,140,FALSE,VIA MADONNA DELLE GRAZIE 11,40.9220283,14.2064393,GIUGLIANO IN CAMPANIA,NA,0.002,6.31E+11
19381,MAXIPIU',LIS,200,TRUE,VIA SANTA CATERINA DA SIENA 14,40.9369545,14.2036418,GIUGLIANO IN CAMPANIA,NA,0.005,6.30E+11
20138,MAXIPIU',LIS,100,FALSE,VIA DELLE COLONNE 10,40.928645,14.21916,GIUGLIANO IN CAMPANIA,NA,0.002,6.30E+11
21387,MAXIPIU',LIS,110,FALSE,VIA ANIELLO PALUMBO 209,40.9256568,14.1964983,GIUGLIANO IN CAMPANIA,NA,0.003,6.30E+11
21388,N. D.,LIS,120,TRUE,VIA ARCANGELO CORELLI 1,40.934554,14.1961481,GIUGLIANO IN CAMPANIA,NA,0.001,6.30E+11
21389,CRAI,SUP,800,TRUE,VIA LAGO PATRIA 216,40.9304981,14.0406575,GIUGLIANO IN CAMPANIA,NA,0.023,6.30E+11
21704,SEBON,SUP,550,FALSE,VIA CATASTE 40,40.9231596,14.1915954,GIUGLIANO IN CAMPANIA,NA,0.02,6.31E+11
21979,DESPAR,LIS,180,FALSE,VIA SAN VITO 68,40.9264106,14.2115017,GIUGLIANO IN CAMPANIA,NA,0.001,6.30E+11
22169,MAXIPIU',LIS,100,TRUE,VIA CASACELLE 32,40.934049,14.187341,GIUGLIANO IN CAMPANIA,NA,0.001,6.30E+11
22233,DECO' MARKET,LIS,260,TRUE,CORSO ANTONIO CAMPANO 586,40.9244576,14.1728527,GIUGLIANO IN CAMPANIA,NA,0.003,6.30E+11
23181,CONAD,LIS,330,TRUE,VIA SAN NULLO 181,40.8824108,14.0781273,GIUGLIANO IN CAMPANIA,NA,0.008,6.30E+11
23242,CONAD SUPERSTORE,SUP,1450,TRUE,VIA APPIA KM 18.700,40.9405358,14.2176638,GIUGLIANO IN CAMPANIA,NA,0.041,6.30E+11
23339,DECO' MARKET,LIS,220,FALSE,VIA SAN LORENZO 1 ,40.93759,14.20766,GIUGLIANO IN CAMPANIA,NA,0.003,6.30E+11
23751,DECO' MARKET,LIS,249,FALSE,VIA DEGLI INNAMORATI 109,40.9265985,14.1850179,GIUGLIANO IN CAMPANIA,NA,0.008,6.30E+11
24137,CRAI,SUP,500,FALSE,VIA MADONNA DELLE GRAZIE,40.9206472,14.2108821,GIUGLIANO IN CAMPANIA,NA,0.005,6.30E+11
24608,DODECA,SUP,1300,TRUE,VIA RIPUARIA 78,40.9067704,14.0682517,GIUGLIANO IN CAMPANIA,NA,0.11,6.30E+11
24963,ENNE MARKET,LIS,150,FALSE,VIA SETTEMBRINI 18,40.9223434,14.2145867,GIUGLIANO IN CAMPANIA,NA,0.003,6.30E+11
25289,DECO' MARKET,LIS,228,TRUE,VIA GIARDINI 8,40.9288556,14.2083765,GIUGLIANO IN CAMPANIA,NA,0.004,6.30E+11
25330,DECO' SUPERMERCATI,SUP,500,TRUE,CORSO ANTONIO CAMPANO 477/481,40.9289006,14.1887838,GIUGLIANO IN CAMPANIA,NA,0.022,6.30E+11
25467,MD,DIS,800,TRUE,VIA SAN NULLO 64/A,40.8925131,14.0978185,GIUGLIANO IN CAMPANIA,NA,0.011,6.30E+11
25641,MARKETPIU',LIS,100,FALSE,VIA DANTE ALIGHIERI 35,40.9256742,14.2053538,GIUGLIANO IN CAMPANIA,NA,0.001,6.30E+11
25649,ENNE MARKET,LIS,115,FALSE,VIA DEGLI INNAMORATI 118,40.9269188,14.1858715,GIUGLIANO IN CAMPANIA,NA,0.002,6.30E+11
25675,MAXIPIU',LIS,200,FALSE,VIA CASCELLE 30,40.9340369,14.187343,GIUGLIANO IN CAMPANIA,NA,0.006,6.30E+11
25738,DECO' SUPERMERCATI,SUP,700,TRUE,VIA SALVATORE NULLO 73B,40.8924869,14.0988323,GIUGLIANO IN CAMPANIA,NA,0.041,6.30E+11
49781,LIDL,DIS,1100,TRUE,VIA PIGNA 1,40.93034,14.1748,GIUGLIANO IN CAMPANIA,NA,0.047,6.30E+11
49834,TODIS,DIS,450,TRUE,VIA COLONNE DI GIUGLIANO 23,40.928747,14.222082,GIUGLIANO IN CAMPANIA,NA,0.007,6.30E+11
50595,DECO' SUPERMERCATI,LIS,380,TRUE,VIA RIPUARIA 119,40.908859,14.0779685,GIUGLIANO IN CAMPANIA,NA,0.013,6.30E+11
51098,DECO' SUPERMERCATI,SUP,550,FALSE,VIA MADONNA DELLE GRAZIE 133,40.9177135,14.2171925,GIUGLIANO IN CAMPANIA,NA,0.019,6.30E+11
28818,N. D.,SSD,300,TRUE,VIA RIPUARIA 397/A,40.9017578,14.0456954,GIUGLIANO IN CAMPANIA,NA,0.017,6.30E+11
28819,OPPORTUNITY SHOP,SSD,130,TRUE,VIA STAFFETTA 127,40.9173151,14.0380707,GIUGLIANO IN CAMPANIA,NA,0.011,6.30E+11
28902,N. D.,SSD,200,FALSE,VIA COLONNE 112 A,40.928688,14.213047,GIUGLIANO IN CAMPANIA,NA,0.003,6.30E+11
29155,PROSHOP,SSD,100,FALSE,VIA GIARDINI 33A,40.930177,14.208265,GIUGLIANO IN CAMPANIA,NA,0.019,6.30E+11
51371,OPPORTUNITY SHOP,SSD,180,TRUE,VIA SANTA RITA DA CASCIA 3,40.9349295,14.2046929,GIUGLIANO IN CAMPANIA,NA,0.026,6.30E+11
3893,IL PUNTO SIGMA,LIS,100,FALSE,VIA UGO FOSCOLO 17,40.707804,14.500426,GRAGNANO,NA,0.001,6.30E+11
3909,CONAD,SUP,650,FALSE,PIAZZA GUGLIELMO MARCONI 9,40.6915107,14.5226416,GRAGNANO,NA,0.013,6.30E+11
5246,MD,DIS,650,TRUE,SS PER AGEROLA 76,40.690995,14.510997,GRAGNANO,NA,0.008,6.30E+11
7280,N. D.,LIS,125,FALSE,VIA VITTORIO VENETO 53,40.6906478,14.5209375,GRAGNANO,NA,0.001,6.30E+11
11823,DECO' SUPERMERCATI,SUP,410,TRUE,VIA SANTA CROCE 98,40.6954655,14.5132082,GRAGNANO,NA,0.015,6.30E+11
14203,DECO' SUPERMERCATI,SUP,405,FALSE,VIA RAFFAELLI 36,40.6930175,14.5266989,GRAGNANO,NA,0.019,6.30E+11
14944,DECO' SUPERMERCATI,SUP,500,TRUE,SS DIREZIONE AGEROLA 2,40.6857815,14.5194808,GRAGNANO,NA,0.044,6.30E+11
18092,DECO' SUPERMERCATI,SUP,400,TRUE,VIA ROMA 32 BIS,40.6888049,14.5197806,GRAGNANO,NA,0.015,6.30E+11
25612,GRAN RISPARMIO MINI,LIS,250,FALSE,VIA DANTE ALIGHIERI 56/58,40.7082401,14.5022323,GRAGNANO,NA,0.005,6.30E+11
50597,SOLE365,SUP,650,FALSE,VIA VOLTE21,40.6936769,14.511185,GRAGNANO,NA,0.022,6.30E+11
50729,UNIVERSO DEL PULITO,SSD,120,FALSE,VIA CASTELLAMMARE 132/B,40.6942315,14.5049754,GRAGNANO,NA,0.009,6.30E+11
29179,PUNTOPI,SSD,100,FALSE,VIA VITTORIO VENETO123,40.6922924,14.5198735,GRAGNANO,NA,0.003,6.30E+11
4171,CONAD,SUP,500,TRUE,CORSO CIRILLO 27,40.9366694,14.2566844,GRUMO NEVANO,NA,0.01,6.30E+11
17360,DECO' SUPERMERCATI,LIS,320,TRUE,VIA E. P. DE FONSECA 14,40.9423616,14.260968,GRUMO NEVANO,NA,0.012,6.30E+11
19382,PELLICANO,LIS,240,FALSE,CORSO GARIBALDI 170,40.9308697,14.2623416,GRUMO NEVANO,NA,0.001,6.30E+11
24422,DECO' MARKET,LIS,250,FALSE,PIAZZA SALVO D'ACQUISTO 7,40.937512,14.2601093,GRUMO NEVANO,NA,0.005,6.30E+11
24553,DESPAR,LIS,250,FALSE,VIA DUCA D'AOSTA 10,40.9386651,14.2590285,GRUMO NEVANO,NA,0.004,6.30E+11
49779,SIGMA SUPERSTORE,SUP,800,TRUE,STRADA PROV. FRATTA-GRUMO  SANT'ARPINO 2,40.936181,14.2773884,GRUMO NEVANO,NA,0.024,6.30E+11
1944,N. D.,LIS,250,TRUE,VIA MICHELE MAZZELLA 126,40.7277308,13.9427497,ISCHIA,NA,0.001,6.30E+11
1945,SIGMA,LIS,390,FALSE,VIA SEMINARIO 34,40.7337111,13.9559003,ISCHIA,NA,0.005,6.30E+11
1949,DOK,SUP,800,TRUE,VIA DELLE TERME 52,40.7412859,13.9441738,ISCHIA,NA,0.035,6.30E+11
3126,TODIS,DIS,250,TRUE,VIA MICHELE MAZZELLA 194/220,40.7202442,13.941133,ISCHIA,NA,0.004,6.30E+11
7803,CONAD,LIS,280,TRUE,VIA MICHELE MAZZELLA 59B,40.7344227,13.9459575,ISCHIA,NA,0.01,6.30E+11
12775,N. D.,LIS,120,FALSE,VIA NUOVA CAMPAGNANO 48,40.7226565,13.9473638,ISCHIA,NA,0.002,6.30E+11
16496,CONAD CITY,LIS,110,FALSE,VIA G.B. VICO 134,40.7259939,13.9533885,ISCHIA,NA,0.006,6.30E+11
16730,N. D.,LIS,120,FALSE,VIA G.B. VICO 139,40.729468,13.9539197,ISCHIA,NA,0.001,6.30E+11
16731,OK SIGMA,LIS,100,FALSE,VIA IASOLINO 92,40.7445484,13.9379665,ISCHIA,NA,0.002,6.30E+11
1946,CARREFOUR EXPRESS,LIS,190,FALSE,VIA IV NOVEMBRE 55,40.7504615,13.893343,LACCO AMENO,NA,0.002,6.30E+11
1948,DOK,SUP,510,TRUE,CORSO RIZZOLI 8,40.7527883,13.8885599,LACCO AMENO,NA,0.016,6.30E+11
15633,DECO' SUPERMERCATI,SUP,550,TRUE,VIA BARENTE 11,40.748868,13.8895235,LACCO AMENO,NA,0.047,6.30E+11
14951,MIO MERCATO,LIS,100,FALSE,CORSO VITTORIO EMANUELE III 21C,40.7031135,14.5391276,LETTERE,NA,0.001,6.30E+11
19223,A&O,LIS,120,FALSE,VIA NUOVA DEPUGLIANO 10,40.7057701,14.5421087,LETTERE,NA,0.006,6.30E+11
16007,CONAD CITY,LIS,150,FALSE,VIA NAZIONALE 42,40.9053028,14.5624091,LIVERI,NA,0.004,6.30E+11
4056,IL PUNTO SIGMA,LIS,130,FALSE,VIA DEL MARE 130,40.8853453,14.182718,MARANO DI NAPOLI,NA,0.003,6.30E+11
4313,MD,DIS,400,FALSE,VIA EMILIA 16,40.90131,14.19573,MARANO DI NAPOLI,NA,0.005,6.30E+11
5291,OTTIMO,LIS,120,TRUE,VIA CASTEL BELVEDERE 2,40.9015167,14.1475515,MARANO DI NAPOLI,NA,0.001,6.30E+11
5316,SISA,LIS,250,TRUE,CORSO EUROPA 280,40.8980231,14.204367,MARANO DI NAPOLI,NA,0.004,6.30E+11
5994,MARKETPIU',LIS,120,FALSE,VIA DOMENICO MALLARDO 21,40.89705,14.19608,MARANO DI NAPOLI,NA,0.002,6.30E+11
6909,N. D.,LIS,300,FALSE,VIA DON MIMI GALLUCCIO 18,40.8974441,14.2002047,MARANO DI NAPOLI,NA,0.001,6.30E+11
8610,QUARI',LIS,102,FALSE,CORSO EUROPA 162,40.8981179,14.201525,MARANO DI NAPOLI,NA,0.004,6.30E+11
14437,CONAD,SUP,400,TRUE,VIA CASTEL BELVEDERE 253/255,40.901404,14.1292297,MARANO DI NAPOLI,NA,0.015,6.30E+11
15056,DECO' SUPERMERCATI,SUP,450,TRUE,VIA SAN ROCCO 161,40.899585,14.1747451,MARANO DI NAPOLI,NA,0.01,6.30E+11
15868,CONAD,SUP,630,TRUE,VIA SAN ROCCO 95 B,40.8991977,14.1796071,MARANO DI NAPOLI,NA,0.008,6.30E+11
16242,SIGMA,SUP,1100,TRUE,VIA MARANO PIANURA 238 BIS,40.8756324,14.1820528,MARANO DI NAPOLI,NA,0.007,6.30E+11
16243,SIGMA,LIS,130,FALSE,VIA LABRIOLA 6,40.89712,14.18305,MARANO DI NAPOLI,NA,0.003,6.30E+11
16732,CONAD CITY,LIS,200,FALSE,CORSO UMBERTO I 57,40.898212,14.189705,MARANO DI NAPOLI,NA,0.004,6.30E+11
17578,DECO' SUPERMERCATI,SUP,450,FALSE,CORSO MEDITERRANEO 116,40.9027102,14.1835403,MARANO DI NAPOLI,NA,0.006,6.30E+11
18485,CONAD,LIS,350,FALSE,VIA SAN ROCCO 395,40.9000737,14.1509354,MARANO DI NAPOLI,NA,0.009,6.30E+11
19539,ENNE MARKET,LIS,140,FALSE,VIA EUCLIDE 5,40.8984156,14.1695646,MARANO DI NAPOLI,NA,0.002,6.30E+11
19540,N. D.,LIS,110,FALSE,CORSO UMBERTO I 159,40.899515,14.187187,MARANO DI NAPOLI,NA,0.001,6.30E+11
20024,SIGMA,SUP,700,TRUE,VIA GIOBERTI 12,40.9002443,14.1774279,MARANO DI NAPOLI,NA,0.011,6.30E+11
20075,SIGMA,LIS,248,FALSE,VIA CASTEL BELVEDERE 135,40.9019247,14.1371057,MARANO DI NAPOLI,NA,0.005,6.30E+11
21390,ENNE MARKET,LIS,120,FALSE,VIA MARANO PIANURA 170,40.8860942,14.185936,MARANO DI NAPOLI,NA,0.003,6.30E+11
21705,ENNESI,LIS,150,FALSE,CORSO UMBERTO 92,40.8984497,14.189048,MARANO DI NAPOLI,NA,0.003,6.30E+11
21816,N. D.,LIS,170,TRUE,VIA MARANO PIANURA 92,40.890592,14.1910207,MARANO DI NAPOLI,NA,0.001,6.30E+11
21983,N. D.,LIS,200,FALSE,VIA SAN ROCCO 402,40.899043,14.153572,MARANO DI NAPOLI,NA,0.001,6.30E+11
22115,QUARI',LIS,167,TRUE,CORSO MEDITERRANEO 75/76,40.9016015,14.1844059,MARANO DI NAPOLI,NA,0.006,6.30E+11
22582,DECO' SUPERMERCATI,LIS,300,TRUE,VIA CHE GUEVARA 36,40.9005901,14.1883297,MARANO DI NAPOLI,NA,0.006,6.30E+11
24845,DESPAR,SUP,450,TRUE,VIA MARANO PIANURA 298,40.8754632,14.1766607,MARANO DI NAPOLI,NA,0.016,6.30E+11
24964,ENNE MARKET,LIS,110,FALSE,VIA TEVERE 110,40.901328,14.181283,MARANO DI NAPOLI,NA,0.002,6.30E+11
25114,ENNE MARKET,LIS,110,TRUE,VIA SAN ROCCO 85,40.8996597,14.1818545,MARANO DI NAPOLI,NA,0.002,6.30E+11
25455,N. D.,LIS,150,FALSE,VIA ISONZO 5/7,40.9008668,14.1869133,MARANO DI NAPOLI,NA,0.001,6.30E+11
25935,CRAI,LIS,250,FALSE,VIA DEL MARE 2,40.8955972,14.1815238,MARANO DI NAPOLI,NA,0.003,6.30E+11
49669,TODIS,DIS,800,TRUE,CORSO ITALIA 33,40.8990429,14.1946129,MARANO DI NAPOLI,NA,0.007,6.30E+11
50436,SIDISMINI,LIS,150,TRUE,VIA CASALANNO 86,40.8958608,14.1819907,MARANO DI NAPOLI,NA,0.003,6.30E+11
51096,SEBON,LIS,340,FALSE,VIA GIACOMO PUCCINI 70/74,40.8927,14.17546,MARANO DI NAPOLI,NA,0.008,6.30E+11
27009,PROSHOP,SSD,130,TRUE,VIA CASTELBELVEDERE 134,40.9023527,14.1344859,MARANO DI NAPOLI,NA,0.012,6.30E+11
29349,PROSHOP,SSD,105,FALSE,CORSO UMBERTO I 10,40.8982856,14.1912302,MARANO DI NAPOLI,NA,0.012,6.30E+11
4054,DECO' SUPERMERCATI,LIS,270,TRUE,VIA ROMA 6/14,40.9283208,14.4384868,MARIGLIANELLA,NA,0.005,6.30E+11
7282,SP SUPERMERCATI PICCOLO,SUP,400,TRUE,VIA MARCONI 9,40.9251158,14.4428305,MARIGLIANELLA,NA,0.052,6.30E+11
21391,N. D.,LIS,180,FALSE,VIA MATERDOMINI 110,40.9257314,14.4373404,MARIGLIANELLA,NA,0.001,6.30E+11
24298,CONAD SUPERSTORE,SUP,1500,TRUE,VIA GALILEO GALILEI 1/2,40.9346305,14.4379321,MARIGLIANELLA,NA,0.032,6.30E+11
1929,SISA,LIS,150,FALSE,CORSO UMBERTO I 401,40.924118,14.461147,MARIGLIANO,NA,0.002,6.30E+11
4535,CONAD,SUP,580,FALSE,CORSO UMBERTO I 415,40.9240471,14.4613414,MARIGLIANO,NA,0.004,6.30E+11
5524,N. D.,LIS,250,TRUE,VIA PADRE PIO 38,40.9072373,14.438988,MARIGLIANO,NA,0.002,6.30E+11
5614,DECO' SUPERMERCATI,LIS,380,TRUE,VIA SAN FRANCESCO D'ASSISI 72,40.9287473,14.4625495,MARIGLIANO,NA,0.012,6.30E+11
8358,INTERSPAR,SUP,1370,TRUE,VIA PONTECITRA 72,40.922488,14.4531202,MARIGLIANO,NA,0.058,6.30E+11
14438,CONAD,SUP,441,TRUE,VIA GIORGIO AMENDOLA 24,40.9196359,14.4479027,MARIGLIANO,NA,0.007,6.30E+11
15350,CONAD,LIS,330,FALSE,VIA SOMMA 103,40.9080464,14.4514506,MARIGLIANO,NA,0.009,6.30E+11
16497,DECO' SUPERMERCATI,LIS,250,TRUE,CORSO VITTORIO EMANUELE III 113,40.9215029,14.4551651,MARIGLIANO,NA,0.006,6.30E+11
19795,SISA,SUP,600,TRUE,CORSO UMBERTO I 46,40.9259984,14.4471083,MARIGLIANO,NA,0.003,6.30E+11
21706,OK SIGMA,LIS,250,FALSE,CORSO CAMPANO 42/44,40.9293789,14.4452969,MARIGLIANO,NA,0.013,6.30E+11
23073,SIGMA,SUP,890,TRUE,VIA NUOVA DEL BOSCO 29,40.9339694,14.4598884,MARIGLIANO,NA,0.009,6.30E+11
24230,MD,DIS,350,TRUE,VIA ISONZO 36 PARCO REA,40.9302342,14.4539465,MARIGLIANO,NA,0.004,6.30E+11
24640,DESPAR,SUP,500,TRUE,CORSO UMBERTO I 150,40.925846,14.4521575,MARIGLIANO,NA,0.018,6.30E+11
49540,SISA,LIS,200,FALSE,VIA NAPOLI 11,40.925213,14.462927,MARIGLIANO,NA,0.003,6.30E+11
26715,ACQUA & SAPONE,SSD,250,TRUE,CORSO UMBERTO I 504,40.92488,14.46842,MARIGLIANO,NA,0.025,6.30E+11
27587,PROSHOP,SSD,200,FALSE,VIA ISONZO 3,40.9260061,14.4532347,MARIGLIANO,NA,0.007,6.30E+11
27908,N. D.,SSD,100,FALSE,CORSO VITTORIO EMANUELE III 190,40.91826,14.4542597,MARIGLIANO,NA,0.002,6.30E+11
6009,AMODIO,LIS,140,TRUE,CORSO TULLIO BOCCARUSSO 39,40.8495534,14.375236,MASSA DI SOMMA,NA,0.002,6.31E+11
8930,DESPAR,LIS,250,TRUE,VIA PARTENOPE 18B,40.613976,14.34392,MASSA LUBRENSE,NA,0.006,6.30E+11
14818,CONAD CITY,LIS,130,FALSE,VIA FILANGERI 25/27,40.6114276,14.3445654,MASSA LUBRENSE,NA,0.004,6.30E+11
16008,CONAD,LIS,280,TRUE,VIA DEI CAMPI 6,40.6052028,14.3740021,MASSA LUBRENSE,NA,0.015,6.30E+11
20683,DESPAR EXPRESS,LIS,100,FALSE,PIAZZA SAN PIETRO 7,40.6088754,14.3413852,MASSA LUBRENSE,NA,0.002,6.30E+11
20684,SIMPATIA CRAI,LIS,100,FALSE,VIA ROMA 60,40.6090313,14.3414023,MASSA LUBRENSE,NA,0.001,6.30E+11
21392,DESPAR EXPRESS,LIS,100,FALSE,VIA CASOLA VINCENZO 2,40.6070778,14.3747522,MASSA LUBRENSE,NA,0.001,6.30E+11
22604,CRAI,SUP,410,FALSE,VIA SEVERO CAPUTO 4/8,40.60252,14.358638,MASSA LUBRENSE,NA,0.01,6.30E+11
25177,N. D.,LIS,100,FALSE,VIA SANTA MARIA 20,40.5993292,14.3653996,MASSA LUBRENSE,NA,0.002,6.30E+11
6653,CUOR DI CRAI,LIS,180,FALSE,VIA LAVINAIO 30,40.92253,14.231915,MELITO DI NAPOLI,NA,0.001,6.30E+11
8611,DECO' MARKET,LIS,275,TRUE,VIA ENRICO FERMI 1,40.918488,14.23692,MELITO DI NAPOLI,NA,0.01,6.30E+11
12522,PELLICANO,LIS,350,FALSE,VIA PAPA GIOVANNI XXIII 22,40.9157821,14.2316786,MELITO DI NAPOLI,NA,0.004,6.30E+11
13231,ENNESI,SUP,1000,TRUE,VIA CIRCUMVALLAZIONE ESTERNA 10 I,40.9106979,14.2320263,MELITO DI NAPOLI,NA,0.014,6.30E+11
16848,DECO' SUPERSTORE,SUP,1100,TRUE,SDA STATALE 7BIS KM 20.086,40.9186981,14.2330454,MELITO DI NAPOLI,NA,0.013,6.30E+11
18486,CUOR DI CRAI,LIS,215,TRUE,CIRCUMVALLAZIONE ESTERNA 20A,40.9107753,14.2347801,MELITO DI NAPOLI,NA,0.002,6.30E+11
22616,DESPAR,SUP,500,FALSE,VIA ROMA 477/483,40.92609,14.2269257,MELITO DI NAPOLI,NA,0.016,6.30E+11
23116,DECO' SUPERMERCATI,SUP,530,TRUE,VIA UMBRIA 8,40.9069572,14.2372435,MELITO DI NAPOLI,NA,0.013,6.30E+11
51293,SIDISMINI,LIS,150,FALSE,CORSO EUROPA 98/100,40.9258559,14.2242196,MELITO DI NAPOLI,NA,0.003,6.30E+11
21394,CUOR DI CRAI,LIS,250,FALSE,VIA CARACCIOLO 95,40.64406,14.41108,META,NA,0.002,6.30E+11
24477,MARKETPIU',LIS,150,FALSE,VIA CARACCIOLO  119,40.6445651,14.4110234,META,NA,0.001,6.30E+11
4081,DOK,LIS,300,TRUE,VIA PRINCIPE DI PIEMONTE 27,40.799943,14.054023,MONTE DI PROCIDA,NA,0.009,6.30E+11
4197,MD,DIS,300,FALSE,VIA CAPPELLA 287,40.8029318,14.0587274,MONTE DI PROCIDA,NA,0.001,6.30E+11
20257,DESPAR,LIS,350,FALSE,VIA PEDECONE 5BIS,40.797795,14.049728,MONTE DI PROCIDA,NA,0.01,6.30E+11
22614,N. D.,SUP,650,TRUE,VIA CAPPELLA 581,40.806276,14.0543193,MONTE DI PROCIDA,NA,0.01,6.30E+11
2307,N. D.,LIS,110,FALSE,VIA DEI FIORI 65,40.9064983,14.2032569,MUGNANO DI NAPOLI,NA,0.001,6.30E+11
2872,MD,DIS,450,FALSE,VIA CESARE PAVESE 2,40.9045378,14.2093023,MUGNANO DI NAPOLI,NA,0.001,6.30E+11
8780,LIDL,DIS,1000,TRUE,VIA PIETRO NENNI 59,40.9132725,14.2245156,MUGNANO DI NAPOLI,NA,0.027,6.30E+11
11626,AUCHAN,IPR,9100,TRUE,VIA PIETRO NENNI 54,40.9105823,14.2225173,MUGNANO DI NAPOLI,NA,0.549,6.30E+11
15705,N. D.,LIS,150,FALSE,VIA NAPOLI 147,40.9024296,14.2083072,MUGNANO DI NAPOLI,NA,0.001,6.30E+11
16245,CONAD CITY,LIS,200,FALSE,VIA NAPOLI 37,40.9066009,14.2075086,MUGNANO DI NAPOLI,NA,0.004,6.30E+11
16498,DECO' SUPERMERCATI,SUP,645,TRUE,VIA MELITO MUGNANO 184,40.9179591,14.2245985,MUGNANO DI NAPOLI,NA,0.019,6.30E+11
19541,N. D.,LIS,110,FALSE,VIA NAPOLI 73,40.9052487,14.207751,MUGNANO DI NAPOLI,NA,0.001,6.30E+11
20210,DECO' SUPERMERCATI,LIS,350,TRUE,VIA NAPOLI 127,40.9029351,14.2082646,MUGNANO DI NAPOLI,NA,0.006,6.30E+11
20620,EUROSPIN,DIS,750,TRUE,VIA PIETRO NENNI 5,40.9171774,14.2088028,MUGNANO DI NAPOLI,NA,0.012,6.30E+11
20934,DESPAR,SUP,500,TRUE,VIA PIETRO NENNI 4,40.9169525,14.2081456,MUGNANO DI NAPOLI,NA,0.013,6.30E+11
22094,CONAD CITY,SUP,400,TRUE,CORSO ITALIA 124,40.9116259,14.196588,MUGNANO DI NAPOLI,NA,0.003,6.30E+11
23642,DECO' SUPERMERCATI,LIS,350,TRUE,CORSO ITALIA 8,40.9047119,14.1953238,MUGNANO DI NAPOLI,NA,0.007,6.30E+11
23690,MD,DIS,900,TRUE,CORSO ITALIA 65,40.9071572,14.1954188,MUGNANO DI NAPOLI,NA,0.01,6.30E+11
24585,DESPAR,SUP,800,FALSE,VIA EUGENIO MONTALE 32,40.9021527,14.2070943,MUGNANO DI NAPOLI,NA,0.013,6.30E+11
24733,N. D.,LIS,150,FALSE,VIA 4 MARTIRI 72 ,40.9115088,14.2061726,MUGNANO DI NAPOLI,NA,0.001,6.30E+11
25528,N. D.,SUP,400,FALSE,CORSO ITALIA 126,40.9118156,14.1961007,MUGNANO DI NAPOLI,NA,0.007,6.30E+11
27450,PROSHOP,SSD,150,FALSE,VIA ALESSANDRO MANZONI 40,40.9072365,14.20967,MUGNANO DI NAPOLI,NA,0.015,6.30E+11
1951,EUROESSE,SUP,750,TRUE,VIA G JANNELLI 190,40.8568788,14.2203177,NAPOLI,NA,0.018,6.30E+11
1952,CONAD CITY,LIS,200,FALSE,STRADA PROVINCIALE DI NAPOLI 1,40.8903354,14.2782692,NAPOLI,NA,0.003,6.30E+11
1953,CONAD CITY,LIS,190,FALSE,CORSO SAN GIOVANNI A TEDUCCIO 54/58,40.8385215,14.2992192,NAPOLI,NA,0.003,6.30E+11
1954,CARREFOUR MARKET,SUP,1180,FALSE,VIA GIOCHI DEL MEDITERRANEO,40.8216728,14.1767294,NAPOLI,NA,0.055,6.30E+11
1955,CARREFOUR MARKET,SUP,946,FALSE,CORSO EUROPA,40.8384105,14.2156567,NAPOLI,NA,0.065,6.30E+11
1956,CARREFOUR MARKET,SUP,1115,FALSE,VIA RAFFAELE MORGHEN 28/30,40.8439535,14.2341893,NAPOLI,NA,0.051,6.30E+11
1957,MARKETPIU',LIS,150,FALSE,VIA CESARE ROSSAROLL 123,40.8563371,14.262513,NAPOLI,NA,0.001,6.30E+11
50885,CONAD CITY,LIS,120,FALSE,VIA SANTA LUCIA FILIPPINI 78/80,40.845451,14.2849016,NAPOLI,NA,0.002,6.30E+11
2459,ETE',SUP,450,FALSE,VIA MENZINGER 48,40.8506034,14.2329056,NAPOLI,NA,0.002,6.30E+11
2862,CONAD,SUP,470,FALSE,VIA FRANCESCO CILEA 179,40.84168,14.22103,NAPOLI,NA,0.008,6.30E+11
2863,MD,DIS,520,FALSE,VIA GIULIO CESARE 50,40.8252813,14.2027972,NAPOLI,NA,0.009,6.30E+11
3007,MD,DIS,760,TRUE,VIALE CASSANO,40.8251201,14.3413394,NAPOLI,NA,0.003,6.31E+11
3009,CARREFOUR EXPRESS,LIS,296,FALSE,VIA FORIA 32,40.8559123,14.2572067,NAPOLI,NA,0.01,6.30E+11
3283,SOLE365,SUP,1152,TRUE,VIA LEPANTO 55/65,40.8270216,14.1979757,NAPOLI,NA,0.036,6.30E+11
3405,DECO' SUPERMERCATI,LIS,289,FALSE,VIA BERNARDO CAVALLINO 29 A,40.8587431,14.2303111,NAPOLI,NA,0.003,6.30E+11
3804,ENNESI,LIS,220,FALSE,VIA FRANCESCO GIORDANI 15,40.8346906,14.2212851,NAPOLI,NA,0.005,6.30E+11
3805,ENNESI,SUP,600,FALSE,VIA CARUSO SETTIMIO SEVERO 4/8,40.8472424,14.2319876,NAPOLI,NA,0.011,6.30E+11
3894,SAPORI & DINTORNI,SUP,520,FALSE,CORSO ARNALDO LUCCI 156,40.8515461,14.2725278,NAPOLI,NA,0.027,6.30E+11
3965,DECO' SUPERMERCATI,SUP,450,TRUE,VIA CUPA CATENA 66,40.8752894,14.299874,NAPOLI,NA,0.018,6.30E+11
4042,MAXI SIDIS,LIS,150,FALSE,CORSO SAN GIOVANNI A TEDUCCIO 458,40.8336478,14.3063648,NAPOLI,NA,0.003,6.30E+11
4055,MAXI SIDIS,LIS,220,FALSE,STRETTOLA S ANNA ALLE PALUDI 30/A,40.8494167,14.276167,NAPOLI,NA,0.001,6.30E+11
4082,N. D.,LIS,100,FALSE,VIA FONTANELLE 25,40.8580244,14.2449084,NAPOLI,NA,0.001,6.30E+11
4168,DODECA,SUP,1650,TRUE,VIA ARENACCIA 154,40.8628139,14.2705738,NAPOLI,NA,0.062,6.30E+11
4332,MD,DIS,700,TRUE,VIA MADDALENA 40,40.8525659,14.2655312,NAPOLI,NA,0.009,6.30E+11
4447,MD,DIS,425,FALSE,PIAZZA NAZIONALE 42,40.859,14.2736399,NAPOLI,NA,0.004,6.30E+11
4480,MD,DIS,430,TRUE,VIA SAN DONATO 67,40.8577052,14.1769739,NAPOLI,NA,0.001,6.30E+11
4488,CARREFOUR MARKET,SUP,551,TRUE,VIA ANTONIO SOLARIO 5,40.8514394,14.2301017,NAPOLI,NA,0.039,6.30E+11
4502,DECO' SUPERMERCATI,LIS,350,FALSE,VIA CONSALVO 93 B,40.8296481,14.2074191,NAPOLI,NA,0.004,6.30E+11
4663,SOLE365,SUP,1046,TRUE,VIA DIOCLEZIANO 105,40.8201512,14.1858499,NAPOLI,NA,0.039,6.30E+11
4673,DECO' SUPERMERCATI,LIS,260,FALSE,PIAZZA CAVOUR 15,40.8549574,14.2551027,NAPOLI,NA,0.011,6.30E+11
4780,DECO' SUPERMERCATI,SUP,545,FALSE,VIA NUOVA SAN ROCCO 56/A,40.8758805,14.2450923,NAPOLI,NA,0.012,6.30E+11
4785,DECO' MAXISTORE,SUP,1100,TRUE,VIA GIUSTINIANO 150,40.8389744,14.2049884,NAPOLI,NA,0.044,6.30E+11
4876,PENNY,DIS,767,TRUE,CALATA DI CAPODICHINO 254,40.879305,14.2709801,NAPOLI,NA,0.021,6.30E+11
5031,SOLE365,SUP,770,TRUE,VIA EDUARDO NICOLARDI 132,40.8708847,14.2351435,NAPOLI,NA,0.025,6.30E+11
5164,DECO' SUPERMERCATI,SUP,550,FALSE,VIA ASCANIO 19,40.8173623,14.1651479,NAPOLI,NA,0.013,6.30E+11
5201,AMODIO,LIS,160,TRUE,VIA ORSOLONE AI GUANTAI 72A/B,40.867512,14.2009464,NAPOLI,NA,0.002,6.30E+11
5222,CONAD,SUP,475,FALSE,VIA BRACCO 4,40.8423848,14.2497886,NAPOLI,NA,0.018,6.30E+11
5318,SIGMA,LIS,350,FALSE,VICO PRIMO DEI LIGUORI 6/7,40.8902098,14.2294301,NAPOLI,NA,0.015,6.30E+11
5428,N. D.,SUP,600,FALSE,VIA MONTEVERGINE 5A/9B,40.8470383,14.2019703,NAPOLI,NA,0.017,6.30E+11
5599,CONAD CITY,LIS,300,FALSE,VIA GIAN LORENZO BERNINI 74,40.845828,14.2316507,NAPOLI,NA,0.002,6.30E+11
5652,N. D.,LIS,110,FALSE,VIA EGIZIACA A PIZZOFALCONE 78,40.8342001,14.2464527,NAPOLI,NA,0.002,6.30E+11
5653,OTTIMO,LIS,100,FALSE,VIA FUORI PORTA SAN GENNARO 16/17,40.8561181,14.25566,NAPOLI,NA,0.001,6.30E+11
5656,CONAD,SUP,400,TRUE,VIA NUOVA TOSCANELLA 3/4,40.8753495,14.2215649,NAPOLI,NA,0.008,6.30E+11
5657,N. D.,LIS,100,FALSE,VICO PETRONE 1/2/3,40.8554429,14.2373703,NAPOLI,NA,0.002,6.30E+11
5800,MD,DIS,1040,TRUE,VIA TESTI PIETRO 118,40.8350434,14.1950669,NAPOLI,NA,0.003,6.30E+11
5801,MD,DIS,450,TRUE,VIA RISORGIMENTO 71,40.846246,14.2053971,NAPOLI,NA,0.004,6.30E+11
5802,MD,DIS,280,FALSE,VIA S ALFONSO MARIA DE LIGUORI 1,40.8606492,14.2696198,NAPOLI,NA,0.001,6.30E+11
5843,SUPERO',LIS,220,TRUE,VIA MALATERRA 17/25,40.8573412,14.2431879,NAPOLI,NA,0.002,6.30E+11
5852,SUPERO',SUP,450,TRUE,VIA MONTEOLIVETO 12,40.8445544,14.251668,NAPOLI,NA,0.009,6.30E+11
5855,SUPERO',SUP,400,FALSE,VIA FRANCESCO PETRARCA 31,40.8078149,14.1978519,NAPOLI,NA,0.007,6.30E+11
5939,FLOR DO CAFE',LIS,240,FALSE,VIA CARDINALE SANFELICE 21,40.8433639,14.2543273,NAPOLI,NA,0.009,6.30E+11
50227,MARKETPIU',LIS,100,FALSE,VIA ASINIO POLLIONE 57/59,40.8164922,14.1636309,NAPOLI,NA,0.001,6.30E+11
5995,MARKETPIU',LIS,100,FALSE,VIA F CELENTANO 10,40.8901445,14.2285211,NAPOLI,NA,0.001,6.30E+11
6010,CONAD,SUP,1000,FALSE,VIALE COLLI AMINEI 365,40.8681415,14.234632,NAPOLI,NA,0.023,6.30E+11
6654,CONAD CITY,LIS,250,FALSE,TRAVERSA I DIVISIONE SIENA 7,40.8160717,14.1875416,NAPOLI,NA,0.004,6.30E+11
6655,CARREFOUR EXPRESS,LIS,181,FALSE,VIA MEZZOCANNONE 99,40.8471068,14.255758,NAPOLI,NA,0.001,6.30E+11
6656,CONAD,SUP,550,FALSE,VIA COMUNALE VECCHIA 6 I TRAVERSA,40.8621932,14.1751579,NAPOLI,NA,0.02,6.30E+11
6870,SISA,LIS,230,TRUE,VIA A.RIGHI 25,40.8316433,14.1559816,NAPOLI,NA,0.008,6.30E+11
6880,TODIS,DIS,1100,TRUE,VIA STANISLAO MANNA 26/56,40.8475164,14.1987195,NAPOLI,NA,0.006,6.30E+11
6885,SOLE365,SUP,725,FALSE,CORSO NOVARA 38,40.8551573,14.2714678,NAPOLI,NA,0.004,6.30E+11
6966,CARREFOUR MARKET,SUP,820,FALSE,VIA FRANCESCO LOMONACO 5,40.8349982,14.2376193,NAPOLI,NA,0.058,6.30E+11
6993,SUPERO',LIS,347,FALSE,VIA MELLONI MACEDONIO 110/114,40.8672389,14.2652587,NAPOLI,NA,0.011,6.30E+11
6994,DECO' SUPERMERCATI,SUP,400,FALSE,PIAZZA SAN GENNARO DEI POVERI 12,40.8627635,14.2459538,NAPOLI,NA,0.01,6.30E+11
7000,CONAD,LIS,280,FALSE,VIA ANIELLO FALCONE 380,40.8394993,14.2209752,NAPOLI,NA,0.012,6.30E+11
7269,DECO' SUPERMERCATI,SUP,485,TRUE,VIA NUOVA TOSCANELLA 58,40.8814467,14.2179532,NAPOLI,NA,0.015,6.30E+11
7285,SEBON,LIS,230,TRUE,VIALE DELLE GALASSIE 61,40.8899336,14.2694605,NAPOLI,NA,0.007,6.30E+11
49383,SEBON,LIS,230,FALSE,CORSO MERIDIONALE 50/B,40.8547867,14.2754141,NAPOLI,NA,0.005,6.30E+11
7433,DECO' SUPERMERCATI,SUP,440,TRUE,VIALE COLLI AMINEI 209,40.8712423,14.2401846,NAPOLI,NA,0.009,6.30E+11
7466,N. D.,SUP,400,TRUE,VIA TROVATORE 7,40.8524163,14.1776392,NAPOLI,NA,0.01,6.30E+11
7820,CONAD,SUP,400,FALSE,VIA ALESSANDRO MANZONI 120/D,40.8246493,14.2111778,NAPOLI,NA,0.011,6.30E+11
7977,SIGMA,SUP,700,TRUE,PIAZZA GABRIELE D'ANNUNZIO 57,40.8296576,14.1939973,NAPOLI,NA,0.01,6.30E+11
8010,CARREFOUR MARKET,SUP,695,FALSE,VIA VENIERO 42,40.8270134,14.1985109,NAPOLI,NA,0.021,6.30E+11
8076,DECO' SUPERMERCATI,LIS,250,FALSE,VIA SERVIO TULLIO 54,40.8444462,14.1989946,NAPOLI,NA,0.013,6.30E+11
8264,SOLE365,SUP,758,FALSE,VIALE DEI PINI 13/15,40.87017,14.24039,NAPOLI,NA,0.017,6.30E+11
8276,DECO' MAXISTORE,SUP,1830,TRUE,1 TRAVERSA II NICOLANGELO PROTOPISANI,40.8369498,14.3086281,NAPOLI,NA,0.026,6.30E+11
8307,AMODIO,LIS,250,FALSE,VIA TIBERIO 59B,40.8233193,14.2005061,NAPOLI,NA,0.018,6.30E+11
8421,CONAD,LIS,245,FALSE,VIA MONTAGNA SPACCATA 256,40.8489261,14.1792018,NAPOLI,NA,0.014,6.30E+11
8439,SOLE365,SUP,515,FALSE,VIA DELL'EPOMEO 61/63,40.8444328,14.2053263,NAPOLI,NA,0.018,6.30E+11
8458,SUPERO',LIS,350,FALSE,VIA CINTHIA PARCO SAN PAOLO 21/23,40.8367367,14.1896302,NAPOLI,NA,0.014,6.30E+11
8459,SUPERO',LIS,261,FALSE,VIALE VIRGILIO 20,40.801056,14.1826105,NAPOLI,NA,0.01,6.30E+11
8552,DECO' SUPERMERCATI,LIS,200,FALSE,VIA GIUSTINIANO 5/15,40.8390799,14.2044245,NAPOLI,NA,0.01,6.30E+11
8612,QUARI',LIS,140,FALSE,VIA ARENACCIA 124,40.86173,14.2703,NAPOLI,NA,0.003,6.30E+11
8613,AMODIO,LIS,180,FALSE,VIA BELVEDERE 32/34,40.842819,14.22536,NAPOLI,NA,0.005,6.30E+11
8719,SOLE365,IPR,4000,TRUE,VIA ARGINE 380,40.8500037,14.3113754,NAPOLI,NA,0.111,6.30E+11
8831,MD,DIS,450,TRUE,VIA EDUARDO NICOLARDI 88,40.870466,14.2349705,NAPOLI,NA,0.002,6.30E+11
8931,MD,DIS,555,TRUE,CORSO SAN GIOVANNI A TEDUCCIO 551,40.8308192,14.3100396,NAPOLI,NA,0.001,6.30E+11
8933,MD,DIS,350,TRUE,VIA BARTOLO LONGO 261,40.8444751,14.3392902,NAPOLI,NA,0.003,6.30E+11
8934,MD,DIS,320,FALSE,VIA TRENTINO 34,40.8909171,14.2579904,NAPOLI,NA,0.002,6.30E+11
8935,SIGMA,SUP,650,TRUE,VIA CATENA 21,40.8627385,14.1675613,NAPOLI,NA,0.018,6.30E+11
9815,CARREFOUR MARKET,SUP,900,FALSE,VIA ABATE SERGIO 6B,40.8482326,14.2302607,NAPOLI,NA,0.004,6.30E+11
10186,SOLE365,SUP,500,TRUE,VIA SAN DONATO III TRAVERSA 95 PALAZZO M,40.8568545,14.1752879,NAPOLI,NA,0.012,6.30E+11
10187,CONAD CITY,LIS,180,FALSE,PIAZZA CAMILLO BENSO CONTE DI CAVOUR 156,40.8517983,14.26812,NAPOLI,NA,0.009,NA
10188,N. D.,LIS,180,TRUE,VIA EMILIO SCAGLIONE 39,40.8794065,14.2342716,NAPOLI,NA,0.001,6.30E+11
10189,AMODIO,LIS,160,FALSE,VIA ADOLFO OMODEO 109,40.84793,14.21955,NAPOLI,NA,0.001,6.30E+11
10387,CONAD,LIS,350,FALSE,VIA DIOCLEZIANO 470,40.8173654,14.1762132,NAPOLI,NA,0.018,6.30E+11
10800,MAXI SIDIS,LIS,250,FALSE,VIA FERRANTE IMPARATO 35 A-B-C-D-E,40.8383241,14.3023326,NAPOLI,NA,0.005,6.30E+11
10992,N. D.,SUP,700,FALSE,VIA NAPOLI 107,40.8566401,14.3281366,NAPOLI,NA,0.017,NA
11627,MAXIPIU',LIS,180,FALSE,VIA DEL CAMPOSANTO 77/79,40.8970837,14.2648607,NAPOLI,NA,0.005,6.30E+11
11628,SISA,SUP,600,FALSE,VIA PARISE MICHELE 59/61,40.86605,14.29459,NAPOLI,NA,0.01,6.30E+11
11629,CUOR DI CRAI,LIS,350,FALSE,VIA LIETI CAPODIMONTE 37/43,40.8723373,14.2466276,NAPOLI,NA,0.005,6.30E+11
11825,CONAD,SUP,600,FALSE,CORSO SECONDIGLIANO 439,40.8936114,14.2596056,NAPOLI,NA,0.007,6.30E+11
50237,DECO' SUPERMERCATI,SUP,400,FALSE,VIA GAURICO POMPONIO 29/31,40.8286053,14.198442,NAPOLI,NA,0.032,6.30E+11
12771,CONAD CITY,LIS,190,FALSE,VIA BOSCO A CAPODIMONTE 9,40.8702728,14.2492271,NAPOLI,NA,0.004,6.30E+11
12964,DECO' SUPERMERCATI,SUP,500,FALSE,VIA LUIGI VOLPICELLA 344/A,40.8485819,14.3247815,NAPOLI,NA,0.013,6.30E+11
13066,SIGMA,SUP,450,FALSE,VIA COLONNELLO LAHALLE 3,40.8629818,14.270175,NAPOLI,NA,0.002,6.30E+11
13232,DECO' SUPERMERCATI,SUP,600,TRUE,VIA BARTOLO LONGO 298,40.8448162,14.338518,NAPOLI,NA,0.022,6.30E+11
13643,CONAD,SUP,470,FALSE,VIA PADRE LUIGI TOSTI 34,40.8471903,14.2595352,NAPOLI,NA,0.026,6.30E+11
13644,N. D.,LIS,140,FALSE,VIA PONTI ROSSI 208/A,40.8711184,14.2638546,NAPOLI,NA,0.001,6.30E+11
13645,MD,DIS,620,TRUE,VIA LEONARDO BIANCHI 75,40.8678042,14.212027,NAPOLI,NA,0.013,6.30E+11
13646,DECO' SUPERMERCATI,SUP,610,TRUE,VIA SIGMUND FREUD 81/89,40.8602585,14.2190652,NAPOLI,NA,0.013,6.30E+11
13647,MAXIPIU',LIS,250,TRUE,VIA VITTORIO VENETO 265/267,40.88995,14.24091,NAPOLI,NA,0.008,6.30E+11
13900,CONAD,SUP,1000,FALSE,VIA PODERICO 11,40.8605932,14.2711417,NAPOLI,NA,0.012,6.30E+11
13901,SUPERO',LIS,350,FALSE,PIAZZA DELL'IMMACOLATA 20,40.8504575,14.2340654,NAPOLI,NA,0.009,NA
13902,N. D.,SUP,450,FALSE,VIA MONTAGNA SPACCATA 345/347,40.8489748,14.1790642,NAPOLI,NA,0.025,6.30E+11
14205,MAXIPIU',LIS,180,FALSE,VIA BERNARDINO MARTIRANO 4,40.8289805,14.3150743,NAPOLI,NA,0.004,6.30E+11
14206,SIMPATIA CRAI,LIS,120,FALSE,VIA NERVA 39/41,40.8414734,14.2037841,NAPOLI,NA,0.001,6.30E+11
14441,SUPERO',SUP,450,TRUE,VIA GAETANO SALVATORE 457,40.8737978,14.2113376,NAPOLI,NA,0.008,NA
14443,CARREFOUR EXPRESS,LIS,315,FALSE,VIA ARANGIO RUIZ 65,40.8336167,14.2221083,NAPOLI,NA,0.004,6.30E+11
14444,CONAD CITY,LIS,150,FALSE,VIA MILANO 170,40.8530792,14.2691332,NAPOLI,NA,0.003,6.30E+11
14543,CARREFOUR EXPRESS,LIS,251,FALSE,CORSO VITTORIO EMANUELE 591,40.839549,14.2414223,NAPOLI,NA,0.001,6.30E+11
14544,SOLE365,SUP,550,FALSE,VIA FONTANA DOMENICO 42/48,40.855461,14.2287289,NAPOLI,NA,0.025,6.30E+11
14671,DECO' MAXISTORE,SUP,1000,TRUE,VIA REPUBBLICHE MARINARE 222M,40.8374049,14.313317,NAPOLI,NA,0.046,6.30E+11
14677,MD,DIS,1400,TRUE,VIA VECCHIA COMUNALE,40.8598318,14.1767953,NAPOLI,NA,0.009,6.30E+11
14678,MD,DIS,500,TRUE,VIA STADERA 64,40.8712154,14.3006968,NAPOLI,NA,0.001,6.30E+11
15057,SISA,SUP,450,TRUE,STRADA VICINALE ROTONDELLA 16/18,40.86873,14.19409,NAPOLI,NA,0.008,6.30E+11
15058,ETE',SUP,600,TRUE,VIA DE PINEDO 38,40.8836523,14.2731426,NAPOLI,NA,0.004,6.30E+11
50249,CUOR DI CRAI,LIS,190,FALSE,VIA GIOVANNI ANTONIO CAMPANO 128,40.89413,14.22821,NAPOLI,NA,0.001,6.30E+11
15352,CRAI,SUP,700,TRUE,VIA ORAZIO 145 G,40.8263151,14.2158791,NAPOLI,NA,0.022,6.30E+11
15570,CONAD,SUP,900,TRUE,VIA ROMA VERSO SCAMPIA 144/D,40.9038028,14.2494284,NAPOLI,NA,0.012,6.30E+11
15572,FLOR DO CAFE',SUP,400,FALSE,VIA DI MASSIMO ANNELLA 21/31,40.847024,14.2272088,NAPOLI,NA,0.013,6.30E+11
15573,N. D.,LIS,140,FALSE,VIA VENTAGLIERI 86B,40.8480397,14.245474,NAPOLI,NA,0.001,6.30E+11
15746,DECO' SUPERMERCATI,LIS,350,FALSE,VIA S GIACOMO DEI CAPRI 45,40.8533578,14.2249748,NAPOLI,NA,0.006,6.30E+11
15818,N. D.,SUP,790,FALSE,CUPA STA CESAREA 62,40.8866536,14.2604552,NAPOLI,NA,0.012,6.30E+11
15819,SIDIS,LIS,140,FALSE,VIA CANZANELLA VECCHIA 13,40.8276891,14.2066801,NAPOLI,NA,0.002,6.30E+11
16010,MARGHERITA,LIS,110,FALSE,VIA POSILLIPO 185,40.80771,14.20409,NAPOLI,NA,0.001,6.30E+11
16011,CONAD,SUP,430,FALSE,VIA SAN DONATO 7,40.8562033,14.1734663,NAPOLI,NA,0.018,6.30E+11
16012,OTTIMO,LIS,280,FALSE,VIA ROVITO SCIPIONE 12,40.867349,14.266351,NAPOLI,NA,0.002,6.30E+11
16246,FLOR DO CAFE',LIS,220,FALSE,VIA DELL'EPOMEO 216/218,40.8457463,14.2001338,NAPOLI,NA,0.006,6.30E+11
16247,N. D.,LIS,105,FALSE,VIA MARSICANO LEONE 19/21,40.8547656,14.2415549,NAPOLI,NA,0.001,6.30E+11
16248,DECO' MARKET,LIS,250,TRUE,VIA STADERA 76,40.8720788,14.3017361,NAPOLI,NA,0.006,6.30E+11
16249,SIGMA,LIS,300,FALSE,CORSO PONTICELLI 54B,40.8519841,14.3333511,NAPOLI,NA,0.005,6.30E+11
16499,EUROESSE,SUP,500,TRUE,VIALE AUGUSTO 101/109,40.825908,14.1993232,NAPOLI,NA,0.009,6.30E+11
50254,N. D.,LIS,100,FALSE,VIA MARIO GIGANTE 36,40.8340728,14.194732,NAPOLI,NA,0.001,6.30E+11
16500,EUROSPAR,LIS,250,FALSE,VIA EDUARDO NICOLARDI 18/40,40.8690077,14.2344451,NAPOLI,NA,0.007,6.30E+11
16733,CARREFOUR EXPRESS,LIS,239,FALSE,VIA GIUSEPPE MARTUCCI 101,40.8366469,14.2331994,NAPOLI,NA,0.004,6.30E+11
16734,CARREFOUR EXPRESS,LIS,252,FALSE,VIA PIGNA 177,40.84975,14.22006,NAPOLI,NA,0.001,6.30E+11
17085,CONAD,SUP,800,TRUE,VIA CONSALVO 107/E,40.832006,14.2061741,NAPOLI,NA,0.015,6.30E+11
17086,CUOR DI CRAI,LIS,270,TRUE,VIA FRANCESCO CILEA 84,40.84318,14.223,NAPOLI,NA,0.002,6.30E+11
17088,N. D.,LIS,100,FALSE,CORSO SECONDIGLIANO 568,40.8968288,14.2569006,NAPOLI,NA,0.001,6.30E+11
17361,SISA,LIS,100,FALSE,VIA SUOR MARIA DELLA PASSIONE BEATA 255,40.8408679,14.322476,NAPOLI,NA,0.001,6.30E+11
17579,DECO' SUPERMERCATI,LIS,350,TRUE,VIA ABATE MINICHINI 27B,40.8686156,14.2667805,NAPOLI,NA,0.008,6.30E+11
17580,CONAD CITY,LIS,100,FALSE,VIA MONFALCONE 52C,40.8664333,14.2889329,NAPOLI,NA,0.002,6.30E+11
17581,MAXI SIDIS,SUP,700,FALSE,VIA NUOVA POGGIOREALE 158,40.8638766,14.2855267,NAPOLI,NA,0.009,6.30E+11
17790,N. D.,LIS,140,FALSE,VIA EMILIO SCAGLIONE 353,40.8880698,14.2264337,NAPOLI,NA,0.001,6.30E+11
17791,DECO' MARKET,LIS,250,TRUE,VIA ANDREA CANTELMO 58,40.860886,14.2685236,NAPOLI,NA,0.003,6.30E+11
17792,N. D.,LIS,300,FALSE,VIA VISCONTI 241,40.85699,14.33924,NAPOLI,NA,0.001,6.30E+11
18094,SIGMA,SUP,450,FALSE,VIA ROCCO SCOTELLARO 7/11,40.8611841,14.1729657,NAPOLI,NA,0.016,6.30E+11
18095,SOLE365,SUP,612,FALSE,VIALE CAMPI FLEGREI 21/C,40.8163343,14.16675,NAPOLI,NA,0.008,6.30E+11
18096,CRAI,LIS,140,FALSE,VIA BUONOCORE 57/59,40.8593374,14.292714,NAPOLI,NA,0.001,6.30E+11
18097,SIGMA,SUP,700,FALSE,VIA PABLO PICASSO 46,40.8563227,14.1640195,NAPOLI,NA,0.019,6.30E+11
18098,DECO' MAXISTORE,SUP,1250,TRUE,VIA BOTTEGHELLE 555,40.8298827,14.3247734,NAPOLI,NA,0.054,6.30E+11
18099,CARREFOUR EXPRESS,LIS,345,FALSE,VIA FERDINANDO DEL CARRETTO 35,40.8423025,14.250802,NAPOLI,NA,0.003,6.30E+11
18100,SUPERO',LIS,265,FALSE,VICO SAN DOMENICO SORIANO 20,40.8486642,14.2493055,NAPOLI,NA,0.02,6.30E+11
18101,FLOR DO CAFE',LIS,180,FALSE,VIA FRANCESCO LOMONACO 1,40.834623,14.2374976,NAPOLI,NA,0.007,6.30E+11
18102,SEBON,LIS,250,FALSE,VIA ANNIBALE MARIA DI FRANCIA 52/54,40.8704,14.23918,NAPOLI,NA,0.004,6.30E+11
18487,N. D.,LIS,110,TRUE,VIA MARCO AURELIO 39,40.8406084,14.1901526,NAPOLI,NA,0.001,6.30E+11
18488,DECO' MARKET,LIS,210,FALSE,DISCESA COROGLIO 81,40.8028941,14.1872646,NAPOLI,NA,0.003,6.30E+11
18489,A&O,SUP,470,FALSE,VIA PANSINI 5 C/O BAR POLICLINICO,40.8636845,14.2227375,NAPOLI,NA,0.009,6.30E+11
18490,N. D.,LIS,250,FALSE,VIA DELL'EPOMEO 549,40.8474327,14.1913268,NAPOLI,NA,0.001,6.30E+11
18491,DECO' SUPERMERCATI,LIS,250,FALSE,VIA COMUNALE NAPOLI 97,40.8606186,14.1796979,NAPOLI,NA,0.006,6.30E+11
18492,N. D.,LIS,295,FALSE,VIA BOTTEGHELLE 627,40.8299455,14.3246658,NAPOLI,NA,0.003,6.30E+11
18493,SIGMA,LIS,250,FALSE,VIA CROCELLE PORTA SAN GENNARO 28,40.8565427,14.2556507,NAPOLI,NA,0.001,6.30E+11
18494,IL PUNTO SIGMA,LIS,180,FALSE,VIA LIVIO ANDRONICO 43B,40.8436202,14.189355,NAPOLI,NA,0.003,6.30E+11
18495,CARREFOUR EXPRESS,LIS,315,FALSE,VIA GIOVANNI PAISIELLO 35/41,40.8469131,14.2263919,NAPOLI,NA,0.003,6.30E+11
18810,MARKETPIU',LIS,150,FALSE,VIA DON GUANELLA 54,40.8906414,14.2457954,NAPOLI,NA,0.001,6.30E+11
19032,DECO' MARKET,LIS,260,FALSE,CORSO ITALIA 96,40.8951951,14.2690232,NAPOLI,NA,0.002,6.30E+11
19033,CONAD,LIS,380,FALSE,VIA ATTILIO MICHELUZZI 134,40.9084023,14.2432732,NAPOLI,NA,0.006,6.30E+11
19034,CRAI,LIS,180,TRUE,VIA PROVINCIALE BOTTEGHELLE 158B,40.8733322,14.3133953,NAPOLI,NA,0.001,6.30E+11
19035,DESPAR,LIS,150,FALSE,VIA S COSMO FUORI PORTA NOLANA 119/B,40.8497441,14.2728362,NAPOLI,NA,0.004,6.30E+11
19148,DESPAR,LIS,180,FALSE,VIA ANTONIO PITLOO 11A,40.845323,14.2273474,NAPOLI,NA,0.002,6.30E+11
19158,DECO' SUPERMERCATI,SUP,510,TRUE,VIA BRAMANTE 28,40.8362156,14.2115826,NAPOLI,NA,0.024,6.30E+11
19189,DECO' SUPERMERCATI,LIS,340,TRUE,VIA EMILIO SCAGLIONE 464,40.8885872,14.2261589,NAPOLI,NA,0.009,6.30E+11
19208,ETE',LIS,250,FALSE,VIA PROVINCIALE MADONNELLE 9A INT 1,40.868393,14.3299289,NAPOLI,NA,0.004,6.30E+11
19230,DESPAR,LIS,250,FALSE,VIA PAOLO DELLA VALLE 56,40.8465578,14.2047749,NAPOLI,NA,0.006,6.30E+11
19231,DECO' SUPERMERCATI,SUP,400,TRUE,VIA PARMENIDE 4,40.8546986,14.1746855,NAPOLI,NA,0.022,6.30E+11
19311,N. D.,LIS,180,FALSE,VIA STEFANO DELLE CHIAIE 14,40.8703154,14.2675315,NAPOLI,NA,0.001,6.30E+11
19383,N. D.,LIS,100,FALSE,VIA DIETRO LA VIGNA 19,40.8868843,14.2352945,NAPOLI,NA,0.001,6.30E+11
19384,N. D.,LIS,130,FALSE,VIA PIAVE 12/14,40.8385415,14.214332,NAPOLI,NA,0.001,6.30E+11
19790,DECO' SUPERMERCATI,LIS,380,TRUE,VIA CUPA RUBINACCI 101,40.8358019,14.3298607,NAPOLI,NA,0.011,6.30E+11
19873,FLOR DO CAFE',LIS,190,FALSE,VIA GIACOMO LEOPARDI 76,40.8282522,14.2016593,NAPOLI,NA,0.007,6.30E+11
19874,FLOR DO CAFE',LIS,180,FALSE,CORSO BRUNO GIORDANO 172/B,40.8306506,14.221942,NAPOLI,NA,0.008,6.30E+11
19875,FLOR DO CAFE',LIS,200,FALSE,CORSO SECONDIGLIANO 281,40.8901751,14.2634147,NAPOLI,NA,0.007,6.30E+11
19876,FLOR DO CAFE',SUP,450,FALSE,VIA DIOCLEZIANO 52,40.8225756,14.1921241,NAPOLI,NA,0.018,6.30E+11
19946,CONAD SUPERSTORE,SUP,1650,TRUE,VIA CINTIA,40.8368844,14.1894839,NAPOLI,NA,0.045,6.30E+11
20025,CONAD CITY,LIS,280,FALSE,CORSO ARNALDO LUCCI 100/102,40.8488521,14.275344,NAPOLI,NA,0.007,6.30E+11
20031,DESPAR,LIS,250,FALSE,VICO I PARROCCHIA 2,40.8940062,14.2625103,NAPOLI,NA,0.005,6.30E+11
20033,DESPAR,LIS,120,FALSE,VIA SANTA LUCIA 24/26,40.8333338,14.2496596,NAPOLI,NA,0.001,6.30E+11
20076,DESPAR,LIS,200,FALSE,PIAZZA PRINCIPE UMBERTO 8,40.8536472,14.2675519,NAPOLI,NA,0.004,6.30E+11
20105,MD,DIS,700,TRUE,VIA DIOCLEZIANO 257,40.8176391,14.1797433,NAPOLI,NA,0.007,6.30E+11
20209,DECO' SUPERMERCATI,SUP,550,FALSE,VIA CALATA CASANOVA 5,40.8573265,14.2712907,NAPOLI,NA,0.017,6.30E+11
20233,TODIS,DIS,668,FALSE,VIA GIUSTINO FORTUNATO,40.8167031,14.1665076,NAPOLI,NA,0.002,6.30E+11
20336,N. D.,SUP,400,FALSE,VIA PROVINCIALE 136,40.8564052,14.1689447,NAPOLI,NA,0.011,6.30E+11
20392,SOLE365,SUP,800,TRUE,VIA MATTIA PRETI 19,40.8417588,14.227434,NAPOLI,NA,0.054,6.30E+11
20482,SEBON,LIS,245,FALSE,VIA  ANTONINO PIO 160,40.8447054,14.2020427,NAPOLI,NA,0.006,6.30E+11
20559,A&O,LIS,200,FALSE,VIA NICOLA NICOLINI 40/42,40.86998,14.26703,NAPOLI,NA,0.002,6.30E+11
20623,DECO' SUPERMERCATI,LIS,365,FALSE,PIAZZA CAVOUR 117,40.8553104,14.2544814,NAPOLI,NA,0.017,6.30E+11
20696,CUOR DI CRAI,LIS,100,FALSE,VIA BATTISTELLO CARACCIOLO 89/91,40.853012,14.2356641,NAPOLI,NA,0.001,6.30E+11
20701,DESPAR EXPRESS,LIS,100,FALSE,VIA MANZONI 149/B,40.8214645,14.2070031,NAPOLI,NA,0.001,6.30E+11
20874,SEBON,SUP,400,FALSE,VIA ENRICO COSENZ 13,40.847745,14.2701678,NAPOLI,NA,0.016,6.30E+11
21268,MD,DIS,360,FALSE,VIA ASCANIO 46,40.81756,14.1651704,NAPOLI,NA,0.002,6.30E+11
21302,SUPERO',SUP,451,FALSE,VIA ALESSANDRO LONGO 36/38,40.8441007,14.2215555,NAPOLI,NA,0.012,6.30E+11
21303,DECO' MARKET,LIS,350,FALSE,VIA SAN VINCENZO ALLA SANITA' 31,40.8594228,14.2479959,NAPOLI,NA,0.005,6.30E+11
21304,SUPERO',LIS,350,FALSE,VIA SANTA LUCIA 59/63,40.8327769,14.2493395,NAPOLI,NA,0.014,6.30E+11
21396,DESPAR,LIS,120,FALSE,CORSO SIRENA 85,40.8351693,14.3221134,NAPOLI,NA,0.003,6.30E+11
21397,MAXI SIDIS,LIS,300,FALSE,PIAZZA DEGLI ARTISTI 10,40.8477388,14.2281034,NAPOLI,NA,0.005,6.30E+11
21398,MARKETPIU',LIS,100,FALSE,VIA SAN GIUSEPPE DEI NUDI 15A,40.8527028,14.2478534,NAPOLI,NA,0.002,6.30E+11
21399,CRAI,LIS,180,FALSE,VIA SANTA MARIA AI MONTI 108,40.8741786,14.2649188,NAPOLI,NA,0.002,6.30E+11
21400,MAXIPIU',LIS,200,FALSE,VIA SAN MATTIA 78,40.8386668,14.2467673,NAPOLI,NA,0.006,6.30E+11
21401,OK SIGMA,LIS,280,FALSE,VIA NUOVA SAN ROCCO 29,40.8751221,14.2468844,NAPOLI,NA,0.005,6.30E+11
21604,N. D.,LIS,180,FALSE,VIA COMUNALE MARANDA 32,40.8622232,14.3228695,NAPOLI,NA,0.001,6.30E+11
21817,SUPERFOOD,SUP,450,TRUE,VIA VICINALE CAMPANILE 156,40.8504895,14.1761864,NAPOLI,NA,0.014,6.30E+11
21984,N. D.,LIS,130,TRUE,VIA NUOVA DETTA CASORIA 19,40.8810619,14.3061339,NAPOLI,NA,0.001,6.30E+11
21985,OTTIMO,LIS,100,FALSE,VIA MONTE ROSA 177,40.9020274,14.2474923,NAPOLI,NA,0.002,6.30E+11
21986,N. D.,LIS,200,FALSE,VIA ANGELO CAMILLO DE MEIS 262,40.8544036,14.3426806,NAPOLI,NA,0.001,6.30E+11
21987,N. D.,LIS,120,TRUE,VIA DELL'EPOMEO 320,40.8462446,14.1973325,NAPOLI,NA,0.005,6.30E+11
22116,QUARI',LIS,122,FALSE,CORSO SAN GIOVANNI A TEDUCCIO 613,40.8297568,14.3120726,NAPOLI,NA,0.004,6.30E+11
22128,QUARI',LIS,150,FALSE,VIA PADRE LUIGI TOSTI 12,40.8473421,14.2603781,NAPOLI,NA,0.008,6.30E+11
22132,AMODIO,LIS,100,FALSE,VIA SUAREZ 3A/B,40.8501649,14.2355252,NAPOLI,NA,0.003,6.30E+11
22146,SIGMA SUPERSTORE,SUP,800,FALSE,CUPA VICINALE SAN SEVERINO 24,40.8742657,14.3070748,NAPOLI,NA,0.017,6.30E+11
22210,SIGMA,LIS,275,FALSE,VIA DEI BRONZI DI RIACE 13/19,40.8486085,14.3434139,NAPOLI,NA,0.005,6.30E+11
22235,DECO' MARKET,LIS,350,TRUE,VIA CASSANO 188B,40.8972941,14.2672043,NAPOLI,NA,0.005,6.30E+11
22236,DECO' MARKET,LIS,165,FALSE,VIA DELL'EPOMEO 428,40.8468291,14.1940367,NAPOLI,NA,0.002,6.30E+11
22237,DECO' MARKET,LIS,250,FALSE,VIA SILVIA RUOTOLO 3/A,40.8517983,14.26812,NAPOLI,NA,0.005,NA
22319,CONAD,SUP,1500,TRUE,CORSO MALTA 83,40.860847,14.2759762,NAPOLI,NA,0.026,6.30E+11
22338,N. D.,SUP,650,FALSE,VIA GIACOMO LEOPARDI 153,40.8295325,14.1970754,NAPOLI,NA,0.013,6.30E+11
22473,SIGMA,LIS,200,FALSE,VIA DEL LAVINAIO 138,40.8492643,14.2668666,NAPOLI,NA,0.003,6.30E+11
22474,IL PUNTO SIGMA,LIS,130,FALSE,VIA GIUSTINIANO 263,40.8390658,14.2044136,NAPOLI,NA,0.002,6.30E+11
22549,ENNESI,LIS,280,FALSE,VIA CIMAROSA 176,40.8426469,14.2276092,NAPOLI,NA,0.005,6.30E+11
22748,SOLE365,SUP,524,FALSE,CORSO VITTORIO EMANUELE 677,40.8349966,14.2192853,NAPOLI,NA,0.043,6.30E+11
22826,CUOR DI CRAI,LIS,250,FALSE,VIA DEI CIMBRI 11,40.8488512,14.2618062,NAPOLI,NA,0.002,6.30E+11
22919,MAXIPIU',SUP,400,FALSE,VIALE DELLE GALASSIE 11/17,40.8898137,14.2675912,NAPOLI,NA,0.005,6.30E+11
23082,MD,DIS,1200,TRUE,VIA DELLE REPUBBLICHE MARINARE 280/282,40.8357779,14.3162156,NAPOLI,NA,0.006,6.30E+11
23312,CONAD CITY,LIS,260,FALSE,VIA BATTISTELLO CARACCIOLO 10,40.8525042,14.2387073,NAPOLI,NA,0.007,6.30E+11
23368,SOLE365,SUP,1000,FALSE,VIA CORNELIA DEI GRACCHI 28/B,40.8412303,14.19904,NAPOLI,NA,0.066,6.30E+11
23369,SOLE365,SUP,1005,TRUE,VIA DOMENICO FONTANA 179,40.8613608,14.2207754,NAPOLI,NA,0.065,6.30E+11
23417,AMODIO,LIS,140,FALSE,VIA VITTORIA COLONNA 29,40.8368483,14.2352855,NAPOLI,NA,0.003,6.30E+11
23469,PELLICANO,LIS,300,FALSE,VIA VERGINI 27,40.8570181,14.2542839,NAPOLI,NA,0.003,6.30E+11
23471,N. D.,LIS,130,FALSE,VIA GIROLAMO SANTA CROCE 19,40.8479573,14.238876,NAPOLI,NA,0.001,6.30E+11
23523,N. D.,LIS,325,TRUE,VIA EURIALO 26/C,40.8166041,14.1680024,NAPOLI,NA,0.005,6.30E+11
23609,ETE',SUP,450,FALSE,VIA GIUSEPPE ORSI 62/64,40.8513677,14.2312703,NAPOLI,NA,0.003,6.30E+11
23752,OTTIMO,LIS,200,FALSE,VIA CUPA SPINELLI 33,40.8943182,14.2188842,NAPOLI,NA,0.002,6.30E+11
23826,CONAD CITY,LIS,350,FALSE,VIA PIETRO COLLETTA 83,40.8518688,14.2636274,NAPOLI,NA,0.008,6.30E+11
23835,AMODIO,LIS,100,FALSE,VIA FRANCESCO CILEA 325/327,40.8405388,14.2177179,NAPOLI,NA,0.003,6.30E+11
23981,SIGMA,LIS,120,FALSE,VIA EDUARDO NICOLARDI 28/30,40.8700147,14.2353403,NAPOLI,NA,0.001,6.30E+11
24057,SAPORI & DINTORNI,SUP,400,FALSE,VIA ALABARDIERI 8,40.8347461,14.2412159,NAPOLI,NA,0.025,6.30E+11
24106,CONAD,SUP,570,TRUE,VIA BRUNO FALCOMATA' 3,40.8480806,14.2222902,NAPOLI,NA,0.022,6.30E+11
24198,N. D.,SUP,400,FALSE,VIA CAMILLO PORZIO 108/116,40.858813,14.265849,NAPOLI,NA,0.003,6.30E+11
24199,ENNESI,LIS,120,FALSE,VIA FRANCESCO CILEA 85/89,40.8431472,14.2240946,NAPOLI,NA,0.002,6.30E+11
24232,MAXIPIU',LIS,280,FALSE,CORSO CHIAIANO 28,40.89178,14.21869,NAPOLI,NA,0.009,6.30E+11
24233,FLOR DO CAFE',LIS,130,FALSE,PIAZZA MUZII 11,40.853138,14.2291512,NAPOLI,NA,0.004,6.30E+11
24294,SOLE365,SUP,1020,FALSE,VIA INCORONATA 14/16,40.841032,14.2517535,NAPOLI,NA,0.091,6.30E+11
24423,FLOR DO CAFE',LIS,250,FALSE,PIAZZA MONTESANTO 9/10,40.8470763,14.2459003,NAPOLI,NA,0.008,NA
24478,CRAI,LIS,120,FALSE,CORSO AMEDEO DI SAVOIA 226 A/B,40.863229,14.2485704,NAPOLI,NA,0.001,6.30E+11
24479,SIDISMINI,LIS,150,FALSE,VIA SANTA TERESA DEGLI SCALZI  148 D,40.8578776,14.2485897,NAPOLI,NA,0.004,6.30E+11
24582,CARREFOUR MARKET,SUP,580,TRUE,VIA GINO DORIA,40.8444088,14.2266276,NAPOLI,NA,0.015,6.30E+11
24604,TODIS,DIS,250,FALSE,VIA SANTA LUCIA 78/82,40.8324653,14.2485421,NAPOLI,NA,0.006,6.30E+11
24734,SUPERFOOD,LIS,110,FALSE,VIA ANNELLA DI MASSIMO  47,40.8464321,14.2266452,NAPOLI,NA,0.001,6.30E+11
24882,N. D.,LIS,250,FALSE,VIA EURIALO 32,40.8166916,14.1665072,NAPOLI,NA,0.001,6.30E+11
24919,IL PUNTO SIGMA,LIS,180,FALSE,VIA DELL'EPOMEO 135,40.8449053,14.202491,NAPOLI,NA,0.003,6.30E+11
24920,SIGMA,SUP,550,FALSE,VIA PASQUALE DEL TORTO 30,40.8614011,14.2195299,NAPOLI,NA,0.006,6.30E+11
24921,N. D.,SUP,850,TRUE,VIA SAN GIACOMO DEI CAPRI,40.8555296,14.2232058,NAPOLI,NA,0.015,6.30E+11
24965,ENNE MARKET,LIS,100,FALSE,VIA TIGLIO 12,40.891793,14.2136379,NAPOLI,NA,0.002,6.30E+11
25015,LIDL,DIS,1200,TRUE,VIA NAZIONALE DELLE PUGLIE 282,40.8778543,14.3128134,NAPOLI,NA,0.066,6.30E+11
25024,DESPAR,LIS,300,FALSE,VIA BISIGNANO BAR 1,40.834585,14.2405196,NAPOLI,NA,0.008,6.30E+11
25033,N. D.,SUP,400,FALSE,CORSO GARIBALDI 372,40.8510267,14.2685295,NAPOLI,NA,0.018,6.30E+11
25037,CONAD CITY,SUP,400,TRUE,VIA GIORDANO BRUNO 100,40.8304483,14.2208402,NAPOLI,NA,0.004,6.30E+11
25038,CONAD CITY,LIS,300,FALSE,VIA GIUSEPPE ORSI 2,40.8531931,14.2332582,NAPOLI,NA,0.008,6.30E+11
25084,CONAD CITY,LIS,350,FALSE,VIA CARLO DE MARCO 3,40.8664677,14.2643807,NAPOLI,NA,0.003,6.30E+11
25117,N. D.,LIS,200,FALSE,VIA PRIMO LEVI 3/5/7,40.86096,14.17595,NAPOLI,NA,0.003,6.30E+11
25152,MAXI SIDIS,LIS,300,FALSE,CORSO EUROPA 44,40.8380379,14.2140644,NAPOLI,NA,0.007,6.30E+11
25174,ENNE MARKET,LIS,100,FALSE,VIA DON LUIGI GUANELLA IS.19,40.8905663,14.248551,NAPOLI,NA,0.002,6.30E+11
25284,CONAD CITY,LIS,350,TRUE,LARGO SERMONETA 22/A,40.8234787,14.2179524,NAPOLI,NA,0.011,6.30E+11
25285,CONAD CITY,LIS,350,TRUE,VIA A. SCARLATTI 57,40.8438916,14.2332291,NAPOLI,NA,0.011,6.30E+11
50982,DESPAR EXPRESS,LIS,170,FALSE,VIA S.TERESA DEGLI SCALZI   116,40.8565138,14.2485711,NAPOLI,NA,0.002,6.30E+11
25541,SOLE365,SUP,600,TRUE,VIA RUOPPOLO 93/B,40.8499214,14.2271545,NAPOLI,NA,0.025,6.30E+11
25625,IL PUNTO SIGMA,LIS,170,FALSE,VIA AQUILEIA 39,40.8624591,14.2789383,NAPOLI,NA,0.003,6.30E+11
25820,MD,DIS,700,FALSE,VIA DUCA FERRANTE DELLA MARRA 13,40.8570124,14.2402127,NAPOLI,NA,0.007,6.30E+11
25831,SISA,SUP,400,FALSE,VIALE DELLE GALASSIE 67,40.8899108,14.2695979,NAPOLI,NA,0.004,6.30E+11
25871,DECO' SUPERMERCATI,SUP,500,TRUE,VIA FIUMICELLO A LORETO 7,40.8470314,14.2699546,NAPOLI,NA,0.013,6.30E+11
25873,SIGMA,SUP,800,TRUE,VIA ABATE DESIDERIO 52,40.8895861,14.2763148,NAPOLI,NA,0.022,6.30E+11
25874,SISA,SUP,450,TRUE,VIA COMUNALE GUANTAI ORSOLONE 138/A,40.8684196,14.1933855,NAPOLI,NA,0.008,6.30E+11
25923,N. D.,SUP,500,FALSE,VIA MIGUEL CERVANTES DE SAVAEDRA,40.8411358,14.2509874,NAPOLI,NA,0.012,NA
25936,CRAI,LIS,250,FALSE,VIA VITTORIO EMANUELE III 17/21,40.8380629,14.2502013,NAPOLI,NA,0.003,6.30E+11
49505,N. D.,SUP,400,TRUE,VIA PIAVE 185,40.8409581,14.2094651,NAPOLI,NA,0.008,6.30E+11
25941,DESPAR,LIS,280,FALSE,VIA NICOLO' GARZILLI 16,40.8443552,14.2034041,NAPOLI,NA,0.007,6.30E+11
49545,OTTIMO,LIS,100,FALSE,VIA GIACOMO LEOPARDI 184/186,40.8307855,14.193792,NAPOLI,NA,0.002,6.30E+11
49599,PENNY,DIS,903,TRUE,VIA ROMA VERSO SCAMPIA 56,40.9009724,14.2526179,NAPOLI,NA,0.02,6.30E+11
49646,DECO' MARKET,LIS,250,FALSE,VIA VITTORIO EMANUELE 71/73,40.8925693,14.2373436,NAPOLI,NA,0.008,6.30E+11
49670,CONAD SUPERSTORE,SUP,2018,TRUE,PIAZZA MADONNA DELL'ARCO 12,40.8878968,14.2557149,NAPOLI,NA,0.095,6.30E+11
49759,DECO' MARKET,LIS,350,FALSE,VIA GIOACHINO ROSSINI 1/C-D,40.8478654,14.2234929,NAPOLI,NA,0.005,6.30E+11
49767,CONAD CITY,LIS,250,TRUE,VIA NICOLA NICOLINI 40/48,40.86998,14.26703,NAPOLI,NA,0.008,6.30E+11
49894,DECO' SUPERMERCATI,SUP,420,TRUE,VICO CINQUESANTI 23,40.8518786,14.2574453,NAPOLI,NA,0.017,6.30E+11
50431,MARGHERITA,LIS,180,FALSE,VIA PROL.C. DE MARCO 22,40.8702254,14.2621802,NAPOLI,NA,0.002,6.30E+11
50455,ENNE MARKET,LIS,150,FALSE,VIA MONTEVERGINE 31,40.8457348,14.2023549,NAPOLI,NA,0.004,6.30E+11
50499,QUI DISCOUNT,DIS,190,FALSE,CORSO SIRENA 76/78/80,40.8346231,14.3223703,NAPOLI,NA,0.002,6.30E+11
50500,N. D.,SUP,600,FALSE,VIA STADERA 138 - CC IL BORGO,40.8747588,14.3057857,NAPOLI,NA,0.018,6.30E+11
50510,ETE',SUP,600,FALSE,VIA GENOVA 74,40.855224,14.2756058,NAPOLI,NA,0.021,6.30E+11
50512,DECO' MAXISTORE,SUP,880,TRUE,VIA CAVALLEGGERI 24,40.81855,14.18758,NAPOLI,NA,0.057,6.30E+11
50549,TODIS,DIS,650,TRUE,CORSO GIUSEPPE GARIBALDI 390,40.8485422,14.268908,NAPOLI,NA,0.004,6.30E+11
51064,ETE',LIS,300,FALSE,VIA GUGLIELMO GASPARRINI 1,40.858525,14.2628979,NAPOLI,NA,0.001,6.30E+11
51065,ETE',LIS,210,FALSE,VIA NICOLA NICOLINI 28A/28B,40.8696636,14.2675301,NAPOLI,NA,0.005,6.30E+11
51182,MD,DIS,940,TRUE,VIA DELL'EPOMEO 386,40.8466318,14.1954146,NAPOLI,NA,0.004,6.30E+11
51183,MD,DIS,900,TRUE,CORSO ITALIA 55,40.8926339,14.2658894,NAPOLI,NA,0.009,6.30E+11
51251,CONAD CITY,LIS,300,FALSE,VIA DUOMO 346,40.8461138,14.2624228,NAPOLI,NA,0.011,6.30E+11
26218,ACQUA & SAPONE,SSD,260,TRUE,VIA COMUNALE MARGHERITA 457,40.8737978,14.2113376,NAPOLI,NA,0.049,NA
26463,N. D.,SSD,200,FALSE,VIA ILIONEO 42C,40.8185385,14.1668016,NAPOLI,NA,0.012,6.30E+11
26468,PROSHOP,SSD,100,FALSE,VIA ALESSANDRO MANZONI 149/C,40.8214645,14.2070031,NAPOLI,NA,0.001,6.30E+11
51310,PROSHOP,SSD,100,FALSE,TRAVERSA ANTONINO PIO 4,40.8440519,14.2020482,NAPOLI,NA,0.002,6.30E+11
26470,PROSHOP,SSD,100,FALSE,VIA BELVEDERE 21/23,40.8425718,14.2253216,NAPOLI,NA,0.022,6.30E+11
26471,PROSHOP,SSD,120,FALSE,VIA MARCO AURELIO SEVERINO 40/42,40.8664311,14.2672534,NAPOLI,NA,0.011,6.30E+11
26474,N. D.,SSD,100,FALSE,VIA SERGIO ABATE 20/22,40.8483234,14.2308177,NAPOLI,NA,0.002,6.30E+11
26688,PROSHOP,SSD,100,FALSE,VIA GIACINTO DE SIVO 20,40.8178218,14.1870987,NAPOLI,NA,0.004,6.30E+11
26690,PROSHOP,SSD,100,FALSE,VIA PABLO PICASSO 2,40.8560366,14.1681595,NAPOLI,NA,0.002,6.30E+11
51313,PROSHOP,SSD,210,FALSE,VIA PETRARCA 51/63,40.8111641,14.201197,NAPOLI,NA,0.015,6.30E+11
27010,PROSHOP,SSD,600,TRUE,VIA EDUARDO NICOLARDI 88,40.870466,14.2349705,NAPOLI,NA,0.029,6.30E+11
27074,PROSHOP,SSD,300,FALSE,CORSO GARIBALDI 341,40.854438,14.2678631,NAPOLI,NA,0.031,6.30E+11
27075,PROSHOP,SSD,200,FALSE,VIA SIMONE MARTINI 54E/60,40.8512533,14.2227586,NAPOLI,NA,0.009,6.30E+11
27452,PROSHOP,SSD,100,FALSE,VIA VINCENZO JANFOLLA 429,40.888109,14.2478932,NAPOLI,NA,0.005,6.30E+11
27471,PROSHOP,SSD,100,FALSE,CORSO VITTORIO EMANUELE 116/A,40.83642,14.22566,NAPOLI,NA,0.004,6.30E+11
27686,PROSHOP,SSD,100,FALSE,VIALE DELLE MIMOSE 2/B,40.86947,14.23832,NAPOLI,NA,0.001,6.30E+11
27889,OPPORTUNITY SHOP,SSD,130,TRUE,VIA MONTEVERGINE 20/A,40.8459696,14.2020767,NAPOLI,NA,0.01,6.30E+11
27890,OPPORTUNITY SHOP,SSD,120,FALSE,VIA TALETE DI MILETO 8,40.8548447,14.1735057,NAPOLI,NA,0.011,6.30E+11
27939,AMATO POINT,SSD,130,FALSE,VIA FRANCESCO CILEA 273/275,40.8416291,14.2183181,NAPOLI,NA,0.009,6.30E+11
51315,PROSHOP,SSD,110,FALSE,VIA DUCA DEGLI ABRUZZI 77/A,40.893719,14.2620224,NAPOLI,NA,0.012,6.30E+11
28090,OPPORTUNITY SHOP,SSD,250,FALSE,VIA TIBERIO 53/57,40.8233785,14.2006543,NAPOLI,NA,0.025,6.30E+11
28091,OPPORTUNITY SHOP,SSD,120,FALSE,VIA SAN GIACOMO DEI CAPRI 488/C,40.8555296,14.2232058,NAPOLI,NA,0.017,6.30E+11
28100,N. D.,SSD,100,FALSE,PIAZZA LARGA AL MERCATO 7,40.8484563,14.2670062,NAPOLI,NA,0.013,6.30E+11
51316,PROSHOP,SSD,150,FALSE,VIA ARENACCIA 290/B,40.8676744,14.268499,NAPOLI,NA,0.001,6.30E+11
28198,PROSHOP,SSD,200,FALSE,CORSO VITTORIO EMANUELE 607,40.8395751,14.2404626,NAPOLI,NA,0.002,6.30E+11
28301,N. D.,SSD,200,FALSE,VIA SILVIO SPAVENTA 34,40.8507151,14.2691521,NAPOLI,NA,0.006,6.30E+11
28488,OPPORTUNITY SHOP,SSD,250,FALSE,VIA COMUNALE NAPOLI 113,40.858888,14.1805043,NAPOLI,NA,0.029,6.30E+11
28489,OPPORTUNITY SHOP,SSD,140,FALSE,VIA EDUARDO NICOLARDI 13/17,40.8690236,14.2344508,NAPOLI,NA,0.016,6.30E+11
28544,PROSHOP,SSD,300,FALSE,CORSO UMBERTO I 365,40.8507455,14.2668395,NAPOLI,NA,0.025,6.30E+11
28657,OPPORTUNITY SHOP,SSD,150,FALSE,VIALE COLLI AMINEI 171,40.8715291,14.2410279,NAPOLI,NA,0.012,6.30E+11
28679,PROSHOP,SSD,105,FALSE,VIA MASSIMO STANZIONE 29,40.8456395,14.2301699,NAPOLI,NA,0.007,6.30E+11
28682,PROSHOP,SSD,130,FALSE,VIALE DEL POGGIO1/3,40.8682849,14.2363459,NAPOLI,NA,0.001,6.30E+11
28707,PROSHOP,SSD,120,FALSE,VIA EDUARDO NICOLARDI 161/187,40.8708847,14.2351435,NAPOLI,NA,0.007,6.30E+11
28806,OPPORTUNITY SHOP,SSD,160,FALSE,VIA ARENACCIA 77,40.8587874,14.2705456,NAPOLI,NA,0.016,6.30E+11
28807,AMATO POINT,SSD,285,TRUE,VIA MARCELLO CASALE DE BUSTIS 10,40.8486549,14.229839,NAPOLI,NA,0.033,6.30E+11
28809,AMATO POINT,SSD,150,FALSE,VIA CARELLI 3 A,40.8461191,14.2274154,NAPOLI,NA,0.019,6.30E+11
49932,N. D.,SSD,100,FALSE,VIA CASSANO 17,40.8957691,14.2683864,NAPOLI,NA,0.006,6.30E+11
28813,AMATO POINT,SSD,130,FALSE,VIA LARGO FERRANDINA 8,40.8355093,14.2386111,NAPOLI,NA,0.006,6.30E+11
28814,AMATO POINT,SSD,130,FALSE,VIA MICHELANGELO SCHIPA 101/105,40.8351138,14.220775,NAPOLI,NA,0.011,6.30E+11
28815,AMATO POINT,SSD,100,FALSE,VIA MORGHEN 39 A/B,40.843709,14.2338002,NAPOLI,NA,0.009,6.30E+11
28816,N. D.,SSD,100,FALSE,VIA PIGNASECCA 65,40.8454056,14.2484627,NAPOLI,NA,0.001,6.30E+11
28817,AMATO POINT,SSD,100,FALSE,VIA PISCICELLI 50,40.8523972,14.2288123,NAPOLI,NA,0.009,6.30E+11
28820,N. D.,SSD,100,FALSE,VIA UGO NIUTTA 6,40.8515606,14.2307757,NAPOLI,NA,0.005,6.30E+11
28821,N. D.,SSD,100,FALSE,VIALE CAVALLEGGERI D'AOSTA 64,40.8170574,14.1876394,NAPOLI,NA,0.003,6.30E+11
28904,UNIVERSO DEL PULITO,SSD,100,FALSE,VIA CASSANO 30,40.8963116,14.267694,NAPOLI,NA,0.008,6.30E+11
28905,N. D.,SSD,100,FALSE,VIA MICHELANGELO CICCONE  35,40.8486707,14.2737588,NAPOLI,NA,0.025,6.30E+11
28907,OPPORTUNITY SHOP,SSD,160,FALSE,VIA DE JACOPO DE GENNARO 50/56,40.828344,14.1978453,NAPOLI,NA,0.027,6.30E+11
29009,OPPORTUNITY SHOP,SSD,200,FALSE,CORSO SECONDIGLIANO 536/538,40.8956442,14.258128,NAPOLI,NA,0.02,6.30E+11
29010,OPPORTUNITY SHOP,SSD,100,FALSE,CORSO IV NOVEMBRE 35,40.8393797,14.3164266,NAPOLI,NA,0.013,6.30E+11
29011,OPPORTUNITY SHOP,SSD,100,FALSE,CORSO SIRENA 277,40.8393599,14.3194101,NAPOLI,NA,0.011,6.30E+11
29012,OPPORTUNITY SHOP,SSD,100,FALSE,VIA SALVADOR DALI',40.8575387,14.167069,NAPOLI,NA,0.01,6.30E+11
49937,OPPORTUNITY SHOP,SSD,100,FALSE,VIA ANTONINO PIO 57,40.8414679,14.200805,NAPOLI,NA,0.014,6.30E+11
29054,PROSHOP,SSD,110,FALSE,CORSO VITTORIO EMANUELE 469,40.8506314,14.2419412,NAPOLI,NA,0.004,6.30E+11
49939,PROSHOP,SSD,150,FALSE,VIA GIORDANO BRUNO 92A,40.82992,14.22016,NAPOLI,NA,0.002,6.30E+11
29056,PROSHOP,SSD,140,FALSE,VIA GIULIO PALERMO 10,40.8610245,14.2216224,NAPOLI,NA,0.001,6.30E+11
29057,PROSHOP,SSD,115,FALSE,VICO GIARDINETTO 20,40.8410198,14.2468363,NAPOLI,NA,0.005,6.30E+11
29061,SHUKI,SSD,155,FALSE,PIAZZA SALERNO 7\8,40.8568753,14.2761715,NAPOLI,NA,0.01,6.30E+11
29141,PILATO,SSD,230,FALSE,VIA MONTE DI DIO 19,40.8329284,14.2460893,NAPOLI,NA,0.032,6.30E+11
29164,PILATO,SSD,200,FALSE,VIA PIRANDELLO 13,40.8302409,14.1937608,NAPOLI,NA,0.008,6.30E+11
29181,PUNTOPI,SSD,120,FALSE,VIA CARDINALE G.SAN FELICE 23,40.8434055,14.2548701,NAPOLI,NA,0.014,6.30E+11
29182,OPPORTUNITY SHOP,SSD,130,TRUE,VIA COMUNALE NAPOLI  130/132,40.85851,14.18077,NAPOLI,NA,0.024,6.30E+11
29283,OPPORTUNITY SHOP,SSD,100,FALSE,VIA BAKUNIN 22,40.835562,14.18873,NAPOLI,NA,0.01,6.30E+11
29288,PROSHOP,SSD,200,FALSE,VIA VINCENZO MOSCA 25/33,40.8499007,14.2336027,NAPOLI,NA,0.017,6.30E+11
49997,ACQUA & SAPONE,SSD,300,TRUE,VIA RAFFAELE STASI 40/46,40.8515892,14.2286699,NAPOLI,NA,0.071,6.30E+11
50045,AMATO POINT,SSD,100,FALSE,VIA FERDINANDO DEL CARRETTO 31,40.8422517,14.2508427,NAPOLI,NA,0.015,6.30E+11
50197,PROSHOP,SSD,500,FALSE,VIA NUOVA POGGIOREALE 18,40.8602882,14.2757748,NAPOLI,NA,0.019,6.30E+11
50797,PROSHOP,SSD,110,FALSE,VIA EMILIO SCAGLIONE 369 A/B/C,40.8884731,14.2259935,NAPOLI,NA,0.012,6.30E+11
51337,OPPORTUNITY SHOP,SSD,100,FALSE,VIA VICINALE PARADISO 2,40.8484155,14.2005467,NAPOLI,NA,0.008,6.30E+11
51338,OPPORTUNITY SHOP,SSD,100,FALSE,VIA VECCHIA SAN GENNARO 19/25,40.8248485,14.1270491,NAPOLI,NA,0.008,6.31E+11
50810,PILATO,SSD,250,FALSE,VIA TEOFILO PATINI 12-20,40.8525527,14.2248352,NAPOLI,NA,0.012,6.30E+11
50838,OPPORTUNITY SHOP,SSD,100,FALSE,VIA PROVINCIALE MONTAGNA SPACCATA,40.8552032,14.1604361,NAPOLI,NA,0.008,6.30E+11
51357,PROSHOP,SSD,105,FALSE,VIA CARAVAGGIO 10/12,40.8358226,14.2113107,NAPOLI,NA,0.007,6.30E+11
51364,OPPORTUNITY SHOP,SSD,100,TRUE,VIA PISCIARELLI 2,40.834176,14.1616908,NAPOLI,NA,0.008,6.30E+11
29350,PROSHOP,SSD,100,FALSE,VIA PAOLO MASCAGNI 21,40.8449602,14.2219951,NAPOLI,NA,0.028,6.30E+11
1930,MD,DIS,1400,TRUE,VIA VARIANTE 7 BIS,40.9326792,14.5228161,NOLA,NA,0.008,6.31E+11
1931,EUROESSE,SUP,500,TRUE,VIA ROMA 28,40.928545,14.528579,NOLA,NA,0.01,6.31E+11
7816,AUCHAN,IPR,8700,TRUE,VIA BOSCOFANGONE,40.9529925,14.4880246,NOLA,NA,0.757,6.31E+11
8185,N. D.,SUP,920,FALSE,VIA CASTELLAMMARE 154,40.880043,14.5115963,NOLA,NA,0.003,6.31E+11
8704,SP SUPERMERCATI PICCOLO,SUP,680,TRUE,VIA SACCACCIO 9,40.9229986,14.5219862,NOLA,NA,0.063,6.31E+11
9366,DESPAR,LIS,210,TRUE,VIA SAN PAOLO BELSITO 250,40.920387,14.536735,NOLA,NA,0.003,6.31E+11
11829,SP SUPERMERCATI PICCOLO,SUP,550,FALSE,VIA SANTORELLI 27,40.9254593,14.5237441,NOLA,NA,0.036,6.31E+11
14447,DECO' SUPERMERCATI,SUP,540,FALSE,VIA FONSECA 74/76,40.926539,14.5328817,NOLA,NA,0.02,6.31E+11
17793,SIGMA,SUP,560,TRUE,VIA CIMITERO,40.9136749,14.5336603,NOLA,NA,0.019,6.31E+11
19385,N. D.,LIS,100,FALSE,VIA STELLA 25,40.920956,14.5396703,NOLA,NA,0.001,6.31E+11
20585,MARKETPIU',LIS,120,FALSE,VIA GIACOMO IMBRODA 65/68,40.922597,14.530375,NOLA,NA,0.001,6.31E+11
22038,N. D.,LIS,120,TRUE,VIA POLVICA 230,40.9826198,14.4642256,NOLA,NA,0.005,6.31E+11
22320,CONAD SUPERSTORE,SUP,1330,TRUE,SS 7 BIS KM 51.500 66,40.9334096,14.5245927,NOLA,NA,0.102,6.31E+11
25203,N. D.,LIS,350,TRUE,VIA FEUDO 187/189,40.9173561,14.5261261,NOLA,NA,0.001,6.31E+11
51066,ETE',SUP,400,FALSE,VIA AMILCARE BOCCIO 78,40.920587,14.5326855,NOLA,NA,0.009,6.31E+11
3842,MAXI SIDIS,SUP,1000,TRUE,VIA SAN LEONARDO 50,40.848502,14.48438,OTTAVIANO,NA,0.016,6.31E+11
13648,CONAD CITY,LIS,110,FALSE,VIA CAMILLO PEANO 20,40.8530299,14.4781077,OTTAVIANO,NA,0.003,6.31E+11
13903,SIGMA SUPERSTORE,LIS,300,TRUE,VIA VECCHIA SARNO 15,40.8496031,14.4849319,OTTAVIANO,NA,0.008,6.31E+11
15565,SISA,SUP,1000,TRUE,VIA SAN LEONARDO 180,40.847646,14.484909,OTTAVIANO,NA,0.011,6.31E+11
17518,ETE',SUP,400,TRUE,VIA VECCHIA SARNO 43,40.8494571,14.4902344,OTTAVIANO,NA,0.008,6.31E+11
19542,N. D.,LIS,120,TRUE,VIA G. DI PRISCO 136/A,40.849115,14.5092593,OTTAVIANO,NA,0.001,6.31E+11
22405,N. D.,SUP,1200,TRUE,VIA FERROVIA DELLO STATO 283,40.8565336,14.5063441,OTTAVIANO,NA,0.002,6.31E+11
23622,CONAD CITY,LIS,270,FALSE,VIA PENTELETE,40.8569611,14.4759798,OTTAVIANO,NA,0.011,6.31E+11
25049,N. D.,LIS,190,FALSE,VIA LUIGI CARBONE 6,40.84541,14.507613,OTTAVIANO,NA,0.001,6.31E+11
49578,N. D.,SUP,800,TRUE,VIA VECCHIA SARNO 57,40.8492225,14.4908368,OTTAVIANO,NA,0.024,6.31E+11
50380,N. D.,SUP,504,TRUE,VIA LAVINAIO 108,40.8349443,14.5305857,OTTAVIANO,NA,0.009,6.31E+11
28434,PROSHOP,SSD,160,TRUE,VIA SAN LEONARDO 176,40.8471681,14.4853327,OTTAVIANO,NA,0.024,6.31E+11
49934,N. D.,SSD,100,FALSE,VIA SAN LEONARDO (EX MAGAZZINI CASOCCIO),40.8457121,14.4865702,OTTAVIANO,NA,0.002,6.31E+11
5292,MD,DIS,780,TRUE,VIA CIRCUMVALLAZIONE 142,40.8705778,14.5469496,PALMA CAMPANIA,NA,0.006,6.31E+11
5533,ETE',LIS,250,FALSE,VIA QUERCE 175A,40.8657824,14.5536694,PALMA CAMPANIA,NA,0.006,6.31E+11
5983,DECO' SUPERMERCATI,LIS,325,TRUE,VIA CIRCUMVALLAZIONE 155,40.8731614,14.5487804,PALMA CAMPANIA,NA,0.015,6.31E+11
16735,DESPAR,LIS,300,FALSE,VIA TRIESTE 360,40.8668369,14.544776,PALMA CAMPANIA,NA,0.009,6.31E+11
17089,DESPAR,LIS,190,FALSE,VIA MAURO 212,40.8719078,14.5554062,PALMA CAMPANIA,NA,0.003,6.31E+11
19224,DESPAR,LIS,250,FALSE,VIA NUOVA SARNO 7,40.8621512,14.5534058,PALMA CAMPANIA,NA,0.002,6.31E+11
50322,IL PUNTO SIGMA,LIS,180,FALSE,VIA TRIESTE 200,40.868402,14.5492083,PALMA CAMPANIA,NA,0.003,6.31E+11
1941,CONAD,SUP,791,FALSE,PIAZZA MERCATO 34,40.6322114,14.4076789,PIANO DI SORRENTO,NA,0.068,6.31E+11
8883,OK SIGMA,LIS,230,TRUE,VIA MORTORA 56,40.6297309,14.4100572,PIANO DI SORRENTO,NA,0.001,6.31E+11
11380,N. D.,SUP,1150,FALSE,CORSO ITALIA 377,40.6340366,14.4149571,PIANO DI SORRENTO,NA,0.001,6.31E+11
16501,IL SUPERMERCATO,SUP,420,TRUE,VIA DELLE ROSE 70,40.63423,14.4069,PIANO DI SORRENTO,NA,0.004,6.31E+11
24480,SIGMA,SUP,405,TRUE,CORSO ITALIA 303/305,40.6335085,14.4138524,PIANO DI SORRENTO,NA,0.006,6.31E+11
26009,ACQUA & SAPONE,SSD,140,FALSE,PIAZZA REPUBBLICA 19/21,40.6316536,14.4083036,PIANO DI SORRENTO,NA,0.106,6.31E+11
28028,ACQUA & SAPONE,SSD,250,TRUE,CORSO ITALIA 194,40.634479,14.415652,PIANO DI SORRENTO,NA,0.088,6.31E+11
15820,N. D.,LIS,120,TRUE,VIA PIANA 6,40.674149,14.513342,PIMONTE,NA,0.001,6.31E+11
17582,CRAI,LIS,100,FALSE,VIA RIVOZZA 30,40.674396,14.512754,PIMONTE,NA,0.002,6.31E+11
25420,N. D.,LIS,120,TRUE,VIA NAZIONALE 14,40.6743464,14.5242959,PIMONTE,NA,0.001,6.31E+11
4363,N. D.,LIS,100,FALSE,VIA TENENTE LOSCO 74,40.8021582,14.5380053,POGGIOMARINO,NA,0.001,6.31E+11
7508,EUROSPAR,SUP,750,TRUE,VIA GIOVANNI IERVOLINO 323/329,40.808844,14.5448114,POGGIOMARINO,NA,0.013,6.31E+11
9104,ETE',SUP,500,TRUE,VIA GIOVANNI IERVOLINO 80,40.8033086,14.5426278,POGGIOMARINO,NA,0.02,6.31E+11
16502,SOLE365,SUP,450,FALSE,VIALE MANZONI 119,40.795317,14.538718,POGGIOMARINO,NA,0.005,6.31E+11
16503,DECO' SUPERMERCATI,SUP,540,TRUE,VIA FORNILLO 19,40.7967331,14.5324149,POGGIOMARINO,NA,0.022,6.31E+11
16504,CONAD CITY,LIS,340,FALSE,VIA PUBLIO VIRGILIO MARONE 8 10,40.7998845,14.5426699,POGGIOMARINO,NA,0.002,6.31E+11
18103,DECO' MARKET,LIS,250,TRUE,VIA SCAFATI 100,40.7899529,14.5502936,POGGIOMARINO,NA,0.009,6.31E+11
19278,COMAS SUPERMERCATI,LIS,100,TRUE,VIA XXIV MAGGIO 434,40.8033817,14.5481195,POGGIOMARINO,NA,0.001,6.31E+11
21707,N. D.,LIS,350,FALSE,VIA NUOVA SAN MARZANO 166,40.79542,14.54828,POGGIOMARINO,NA,0.003,6.31E+11
23453,IL PUNTO SIGMA,LIS,190,FALSE,VIA FILIPPO TURATI 480 / 482,40.812444,14.536001,POGGIOMARINO,NA,0.004,6.31E+11
23982,IL PUNTO SIGMA,LIS,200,TRUE,VIA MASSA 9,40.8538588,14.37857,POLLENA TROCCHIA,NA,0.004,6.31E+11
50526,CONAD,SUP,650,FALSE,VIA APICELLA 1,40.8551657,14.3729287,POLLENA TROCCHIA,NA,0.028,6.31E+11
1932,CONAD,SUP,400,FALSE,VIALE ALFA ROMEO 36,40.9125972,14.3979296,POMIGLIANO D'ARCO,NA,0.008,6.31E+11
3454,IL SUPERMERCATO,LIS,380,FALSE,VIA PASSARIELLO 64,40.9068814,14.3966233,POMIGLIANO D'ARCO,NA,0.003,6.31E+11
6012,SIGMA,LIS,300,FALSE,VIA BORGO PACIANO 59,40.908688,14.3843471,POMIGLIANO D'ARCO,NA,0.007,6.31E+11
8614,AMODIO,LIS,180,FALSE,VIA OLBIA 20,40.9117518,14.3958917,POMIGLIANO D'ARCO,NA,0.004,6.31E+11
14449,DESPAR,LIS,220,FALSE,VIA SAN PIETRO 112,40.9057874,14.3816068,POMIGLIANO D'ARCO,NA,0.004,6.31E+11
14819,PELLICANO,LIS,350,FALSE,VIA TERRACCIANO 31,40.9099916,14.392348,POMIGLIANO D'ARCO,NA,0.003,6.31E+11
17090,N. D.,LIS,190,FALSE,VIA PRINCIPE DI PIEMONTE 19,40.9102993,14.3819013,POMIGLIANO D'ARCO,NA,0.001,6.31E+11
20586,MARKETPIU',LIS,110,FALSE,VIA PRINCIPE DI PIEMONTE 83,40.9108469,14.378548,POMIGLIANO D'ARCO,NA,0.001,6.31E+11
21605,SP SUPERMERCATI PICCOLO,SUP,1500,TRUE,VIA NAZIONALE DELLE PUGLIE 155,40.9069251,14.3740369,POMIGLIANO D'ARCO,NA,0.089,6.31E+11
22125,AMODIO,LIS,142,FALSE,VIA NAPOLI 58/60,40.9097164,14.3837081,POMIGLIANO D'ARCO,NA,0.003,6.31E+11
22129,AMODIO,LIS,215,FALSE,VIA PASSARIELLO 2,40.9073374,14.3946593,POMIGLIANO D'ARCO,NA,0.008,6.31E+11
22133,DECO' MARKET,LIS,210,FALSE,VIA TERRACCIANO 229,40.9113521,14.4006712,POMIGLIANO D'ARCO,NA,0.006,6.31E+11
22808,SP SUPERMERCATI PICCOLO,LIS,300,TRUE,VIA PRINCIPE DI PIEMONTE 62,40.9106658,14.3805148,POMIGLIANO D'ARCO,NA,0.014,6.31E+11
23924,AMODIO,LIS,110,FALSE,VIA VITTORIO EMANUELE 65,40.906822,14.391928,POMIGLIANO D'ARCO,NA,0.003,6.31E+11
24737,N. D.,LIS,100,FALSE,VIA PASCOLI  18/20,40.905332,14.3950688,POMIGLIANO D'ARCO,NA,0.001,6.31E+11
25566,AMODIO,LIS,159,FALSE,VIA NENNI 9,40.9052379,14.38791,POMIGLIANO D'ARCO,NA,0.005,6.31E+11
49560,N. D.,LIS,150,FALSE,VIA ROMA 187,40.911626,14.387565,POMIGLIANO D'ARCO,NA,0.004,6.31E+11
28680,PROSHOP,SSD,240,FALSE,VIA FIUGGI 13,40.9111155,14.3832072,POMIGLIANO D'ARCO,NA,0.005,6.31E+11
51326,MISTER RISPARMIO,SSD,100,TRUE,VIA NAZIONALE DELLE PUGLIE 315,40.9022438,14.3586432,POMIGLIANO D'ARCO,NA,0.019,6.31E+11
1933,CARREFOUR MARKET,SUP,1042,FALSE,VIA PLINIO - SS 18 KM 24.1,40.7463969,14.4898102,POMPEI,NA,0.046,6.31E+11
3456,IL SUPERMERCATO,SUP,470,FALSE,VIA SANT'ABBONDIO 154,40.745328,14.495686,POMPEI,NA,0.003,6.31E+11
4381,CONAD SUPERSTORE,SUP,2100,FALSE,VIA DEL MACELLO 22,40.741392,14.5031838,POMPEI,NA,0.133,6.31E+11
5293,IL PUNTO SIGMA,LIS,250,FALSE,VIA NOLANA 126,40.755483,14.4978696,POMPEI,NA,0.006,6.31E+11
9681,SISA,LIS,205,TRUE,VIA ALDO MORO 44,40.7417786,14.4961244,POMPEI,NA,0.002,6.31E+11
11412,AUCHAN,IPR,7000,TRUE,SDA STATALE 145 3,40.736292,14.4850705,POMPEI,NA,0.517,6.31E+11
17583,DECO' SUPERMERCATI,SUP,450,TRUE,PIAZZA FALCONE E BORSELLINO,40.7481932,14.5059923,POMPEI,NA,0.011,6.31E+11
19213,A&O,LIS,279,FALSE,VIA MAZZINI 95,40.7461572,14.4989344,POMPEI,NA,0.003,6.31E+11
21541,CONAD CITY,LIS,240,FALSE,VIA RIPUARIA 69,40.7393159,14.5002194,POMPEI,NA,0.002,6.31E+11
23470,N. D.,LIS,100,FALSE,VIA NOLANA 225,40.758348,14.496392,POMPEI,NA,0.001,6.31E+11
23755,CRAI,LIS,150,FALSE,VIA NOLANA 220,40.75775,14.4967614,POMPEI,NA,0.002,6.31E+11
25536,N. D.,LIS,110,FALSE,VIA ANASTASIO ROSSI 33,40.7503248,14.5025072,POMPEI,NA,0.001,6.31E+11
25829,MD,DIS,700,TRUE,VIALE UNITA' DI ITALIA,40.7469285,14.5093813,POMPEI,NA,0.007,6.31E+11
26475,PROSHOP,SSD,100,FALSE,VIA ALDO MORO 43,40.7403866,14.4943164,POMPEI,NA,0.004,6.31E+11
50739,PUNTOPI,SSD,200,TRUE,VIA TRE PONTI 8,40.7643048,14.4962965,POMPEI,NA,0.012,6.31E+11
1937,EUROESSE,SUP,500,FALSE,VIA ROMA 83,40.8164683,14.3354671,PORTICI,NA,0.01,6.31E+11
1938,N. D.,LIS,180,TRUE,VIA DIAZ 14,40.8184933,14.3324747,PORTICI,NA,0.001,6.31E+11
4106,SOLE365,SUP,573,FALSE,VIA LIBERTA' II TRAV SX 7/9,40.8156309,14.3403249,PORTICI,NA,0.022,6.31E+11
6013,OK SIGMA,LIS,200,FALSE,PIAZZA CASSANO 7/8,40.8242168,14.3414461,PORTICI,NA,0.003,6.31E+11
6926,N. D.,LIS,100,FALSE,VIA GUGLIELMO MARCONI 54/56,40.8177966,14.3370992,PORTICI,NA,0.002,6.31E+11
7290,PELLICANO,LIS,240,FALSE,VIA SAN CRISTOFARO 51,40.822045,14.3349689,PORTICI,NA,0.005,6.31E+11
9679,PELLICANO,LIS,200,FALSE,VIA SAN CRISTOFORO 2,40.8199512,14.3367844,PORTICI,NA,0.006,6.31E+11
10199,SIGMA,LIS,200,FALSE,VIA NASTRI 5,40.815019,14.3386271,PORTICI,NA,0.004,6.31E+11
11381,EUROESSE,LIS,300,FALSE,VIA LIBERTA' 120,40.8155288,14.3423249,PORTICI,NA,0.003,6.31E+11
11830,EUROESSE,SUP,1000,FALSE,VIA GIANTURCO 40,40.8121806,14.3358615,PORTICI,NA,0.017,6.31E+11
16505,SOLE365,SUP,420,TRUE,CORSO GARIBALDI 342,40.8217638,14.3250315,PORTICI,NA,0.006,6.31E+11
17061,DESPAR,LIS,240,TRUE,VIA ZUMBINI 9,40.822179,14.3388365,PORTICI,NA,0.003,6.31E+11
17362,CONAD,SUP,450,FALSE,CORSO GARIBALDI 185,40.818353,14.3299671,PORTICI,NA,0.01,6.31E+11
17517,ETE',SUP,400,TRUE,VIA DEL CORALLO 11,40.814006,14.3542307,PORTICI,NA,0.006,6.31E+11
18104,CONAD CITY,LIS,200,FALSE,VIALE BERNINI 11,40.8170493,14.3426246,PORTICI,NA,0.007,6.31E+11
18909,CARREFOUR EXPRESS,LIS,268,FALSE,VIA DELLA LIBERTA' 175,40.8170582,14.3443249,PORTICI,NA,0.001,6.31E+11
19036,CONAD,SUP,500,FALSE,PIAZZA GRAVINA 13,40.8225364,14.3469611,PORTICI,NA,0.013,6.31E+11
19543,MARKETPIU',LIS,250,FALSE,PIAZZA SEBASTIANO POLI 14,40.8201445,14.3481526,PORTICI,NA,0.003,6.31E+11
20058,N. D.,LIS,150,FALSE,VIA ARLOTTA 4,40.8160196,14.338359,PORTICI,NA,0.006,6.31E+11
20855,DECO' MARKET,LIS,250,FALSE,VIA MICHELANGELO NALDI 47,40.8160337,14.3376444,PORTICI,NA,0.003,6.31E+11
